usaf,wban,station,ctry,st,call,lat,lon,elev,begin,end
007026,99999,WXPOD 7026,AF,NA,NA,0,0,7026,2014-07-11,2017-08-22
007070,99999,WXPOD 7070,AF,NA,NA,0,0,7070,2014-09-23,2015-09-26
008260,99999,WXPOD8270,NA,NA,NA,0,0,0,1942-01-01,1952-12-31
010010,99999,JAN MAYEN(NOR-NAVY),NO,NA,ENJA,70.933,-8.667,9,1931-01-01,2018-06-16
010014,99999,SORSTOKKEN,NO,NA,ENSO,59.792,5.341,48.8,1986-11-20,2018-06-16
010015,99999,BRINGELAND,NO,NA,NA,61.383,5.867,327,1987-01-17,2011-10-20
010016,99999,RORVIK/RYUM,NO,NA,NA,64.85,11.233,14,1987-01-16,1991-08-06
010017,99999,FRIGG,NO,NA,ENFR,59.98,2.25,48,1988-03-20,2005-02-28
010020,99999,VERLEGENHUKEN,NO,NA,NA,80.05,16.25,8,1986-11-09,2018-06-16
010030,99999,HORNSUND,NO,NA,NA,77,15.5,12,1985-06-01,2018-06-16
010040,99999,NY-ALESUND II,NO,NA,ENAS,78.917,11.933,8,1973-01-01,2014-05-23
010050,99999,ISFJORD RADIO,SV,NA,NA,78.067,13.633,9,1955-01-01,2014-05-23
010060,99999,EDGEOYA,NO,NA,NA,78.25,22.817,14,1973-01-01,2018-06-16
010070,99999,NY-ALESUND,SV,NA,NA,78.917,11.933,7.7,1973-01-06,2018-06-16
010071,99999,LONGYEARBYEN,SV,NA,NA,78.217,15.583,37,2005-02-10,2005-02-10
010080,99999,LONGYEAR,SV,NA,ENSB,78.246,15.466,26.8,1975-09-29,2018-06-16
010090,99999,KARL XII OYA,SV,NA,NA,80.65,25,5,1955-01-01,2018-06-16
010100,99999,ANDOYA,NO,NA,ENAN,69.293,16.144,13.1,1931-01-03,2018-06-16
010110,99999,KVITOYA,SV,NA,NA,80.067,31.5,10,1986-11-18,2018-06-16
010140,99999,SENJA-LAUKHELLA,NO,NA,NA,69.233,17.9,9,1973-01-01,2014-05-23
010150,99999,HEKKINGEN FYR,NO,NA,NA,69.6,17.833,14,1980-03-14,2018-06-16
010160,99999,KONGSOYA,NO,NA,NA,78.933,28.9,20,1993-05-01,2018-06-16
010170,99999,AKSELOYA,SV,NA,NA,77.683,14.783,6,1973-01-01,2018-06-16
010190,99999,SVARTTANGEN,NO,NA,NA,77.517,20.817,20,2010-08-25,2014-05-23
010200,99999,SORKAPPOYA,SV,NA,NA,76.483,16.55,10,2010-10-08,2018-06-16
010230,99999,BARDUFOSS,NO,NA,ENDU,69.056,18.54,76.8,1940-07-13,2018-06-16
010231,99999,DRAUGEN,NO,NA,ENDR,64.35,7.8,0,2004-05-10,2018-05-30
010240,99999,PYRAMIDEN,NO,NA,NA,78.65,16.367,20,1973-01-01,2018-06-16
010250,99999,TROMSO,NO,NA,ENTC,69.683,18.919,9.4,1973-01-01,2018-06-16
010260,99999,TROMSO,NO,NA,NA,69.65,18.933,114.5,1997-02-01,2018-06-16
010270,99999,TROMSO-HOLT,NO,NA,NA,69.65,18.9,20,2011-09-28,2018-06-16
010280,99999,BJORNOYA ISLAND,NO,NA,ENBJ,74.517,19.017,18,1931-01-03,2018-06-16
010300,99999,KISTEFJELL,NO,NA,NA,69.283,18.133,982,1953-01-01,2018-06-16
010303,99999,TROMSO/SKATTURA,NO,NA,NA,69.7,19.017,14,1951-01-01,2015-01-08
010320,99999,OVERBYGD,NO,NA,NA,69.017,19.283,78,1973-01-01,2014-05-23
010330,99999,TORSVAG FYR,NO,NA,NA,70.25,19.5,24,1973-01-01,2018-06-07
010340,99999,FUGLOYKALVEN FYR,NO,NA,NA,70.317,20.15,38,1987-12-02,2014-05-23
010350,99999,LYNGEN GJERDVASSBU,NO,NA,NA,69.567,20.1,710,1973-01-01,2018-06-16
010360,99999,NORDNESFJELLET,NO,NA,NA,69.567,20.433,710,2004-05-10,2018-06-16
010370,99999,SKIBOTN 2,NO,NA,NA,69.383,20.283,20,1973-01-01,2018-06-16
010400,99999,SKJERVOY,NO,NA,NA,70.033,20.983,15,1973-01-01,1978-09-27
010410,99999,NORDREISA-OYENG,NO,NA,NA,69.733,21.017,5,1973-01-01,2014-05-23
010420,99999,HASVIK-SLUSKFJELLET,NO,NA,NA,70.6,22.45,438,2008-09-17,2018-06-16
010430,99999,ROGNSUNDET,NO,NA,NA,70.417,22.817,10,1973-01-01,2018-06-16
010435,99999,HASVIK,NO,NA,NA,70.483,22.15,7,1975-05-15,2011-10-14
010440,99999,HASVIK,NO,NA,ENHK,70.487,22.14,6.4,2011-09-28,2018-06-16
010450,99999,NORDSTRAUM I KVAENANGEN,NO,NA,NA,69.833,21.883,6,1973-01-01,2018-06-16
010460,99999,SORKJOSEN,NO,NA,ENSR,69.787,20.959,4.9,1975-09-05,2018-06-16
010470,99999,KAUTOKEINO II,NO,NA,ENKA,69.017,23.067,307,1973-01-01,2018-06-16
010490,99999,ALTA,NO,NA,ENAT,69.976,23.372,2.7,1973-01-01,2018-06-16
010510,99999,SUOLOVUOPMI,NO,NA,NA,69.583,23.533,374,1973-01-02,2014-05-23
010520,99999,HAMMERFEST AP,NO,NA,ENHF,70.683,23.683,81,1940-10-08,2018-06-16
010530,99999,HAMMERFEST RADIO,NO,NA,NA,70.683,23.683,70,1973-01-01,1987-12-26
010550,99999,FRUHOLMEN FYR,NO,NA,NA,71.1,23.983,14.2,1931-01-01,2018-06-16
010570,99999,CUOVDDATMOHKKI,NO,NA,NA,69.367,24.433,286,1973-01-01,2018-06-16
010580,99999,SUOLOVUOPMI LULIT,NO,NA,NA,69.567,23.533,381,2005-02-18,2018-06-16
010590,99999,BANAK,NO,NA,ENNA,70.069,24.973,7.6,1973-01-01,2018-06-16
010610,99999,BRENNELV,NO,NA,NA,70.067,25.117,34,1973-01-01,1984-07-07
010620,99999,HOPEN ISLAND,NO,NA,ENHO,76.5,25.067,10,1955-01-01,2018-06-16
010630,99999,KISTRAND III,NO,NA,NA,70.45,25.217,6,1973-01-01,1987-07-15
010650,99999,KARASJOK,NO,NA,NA,69.467,25.517,133,1973-01-01,2018-06-16
010660,99999,HELNES FYR,NO,NA,NA,71.067,26.233,33,1973-01-01,2004-06-19
010670,99999,LEVAJOK-EVJEN,NO,NA,NA,69.9,26.417,112,1973-01-03,1982-09-24
010671,99999,LEVAJOK-EVJEN,NO,NA,NA,69.9,26.417,112,2007-03-07,2007-03-07
010680,99999,HONNINGSVAG/VALAN,NO,NA,ENHV,71.017,25.983,14,1980-06-04,2018-06-16
010740,99999,MEHAMN,NO,NA,ENMH,71.033,27.833,13,1975-09-05,2018-06-16
010750,99999,RUSTEFJELBMA,NO,NA,NA,70.4,28.2,11.2,1973-01-01,2013-05-31
010760,99999,TANABRU,NO,NA,NA,70.217,28.167,32,2012-11-21,2018-06-16
010780,99999,SLETTNES FYR,NO,NA,NA,71.1,28.233,10,1973-01-01,2018-06-16
010820,99999,NYRUD,NO,NA,NA,69.15,29.25,56,1973-09-19,2018-06-16
010830,99999,BERLEVAG,NO,NA,ENBV,70.867,29.033,13,1975-09-05,2018-06-16
010840,99999,PASVIK,NO,NA,NA,69.45,30.033,27,1973-01-01,2018-06-16
010850,99999,BUGOYFJORD,NO,NA,NA,69.85,29.417,8,1973-01-01,1978-10-08
010860,99999,BATSFJORD,NO,NA,ENBS,70.6,29.693,149.4,2011-09-28,2018-06-16
010875,99999,HEIMDAL OIL PLATFORM,NO,NA,ENHM,59.567,2.217,90,2011-01-01,2018-06-16
010876,99999,NORNE OIL PLATFORM,NO,NA,ENNE,66.017,8.083,90,2011-01-01,2018-06-16
010877,99999,TROLL A  OIL PLATFORM,NO,NA,ENQA,60.633,3.717,90,2011-01-01,2018-06-16
010878,99999,SNORRE A  OIL PLATFORM,NO,NA,ENSE,61.45,2.133,90,2011-01-01,2018-06-16
010879,99999,SNORRE B  OIL PLATFORM,NO,NA,ENQR,61.533,2.2,90,2011-01-01,2018-06-16
010880,99999,VADSO,NO,NA,ENVD,70.067,29.85,39,1975-09-05,2018-06-16
010881,99999,NARVIK III/FRAMNES,NO,NA,NA,68.467,17.5,23,2005-04-05,2011-10-20
010882,99999,ROROS,NO,NA,ENRO,62.578,11.342,626.1,2005-04-05,2018-06-16
010883,99999,SANDANE/ANDA,NO,NA,NA,61.833,6.117,60,2005-04-05,2011-10-14
010884,99999,GEITERYGGEN,NO,NA,ENSN,59.185,9.567,141.1,2005-04-05,2015-11-09
010885,99999,BATSFJORD,NO,NA,NA,70.6,29.733,153,1994-07-18,2011-10-14
010886,99999,SLEIPNER A OIL PLATFORM,NO,NA,ENSL,58.367,1.9,30,2005-04-05,2018-06-16
010887,99999,TROLL C OIL PLATFORM,NO,NA,ENQC,60.886,3.61,20,2011-05-12,2018-06-16
010890,99999,HOYBUKTMOEN,NO,NA,ENKR,69.726,29.893,86.3,1940-11-01,2018-06-16
010920,99999,MAKKAUR FYR,NO,NA,NA,70.7,30.083,9,1973-01-01,2018-06-16
010970,99999,SVARTNES,NO,NA,NA,70.35,31.05,12,1993-02-09,2011-10-14
010980,99999,VARDO,NO,NA,NA,70.367,31.1,15,1931-01-03,2018-06-16
010990,99999,VARDO AP / SVARTNES,NO,NA,ENSS,70.355,31.045,12.8,2011-09-28,2018-06-16
011020,99999,SKLINNA FYR,NO,NA,NA,65.2,11,16,1975-02-28,2018-06-16
011025,99999,HEIDRUN,NO,NA,ENHE,65.333,7.317,80,1999-04-24,2018-06-16
011030,99999,LEKA,NO,NA,NA,65.1,11.7,47,1973-01-01,2007-03-07
011040,99999,ROTVAER,NO,NA,NA,68.367,15.95,8,2007-06-05,2008-08-17
011050,99999,ROTVAER,NO,NA,NA,68.367,15.95,8,1973-01-01,2018-06-16
011051,99999,SKOMVAER (LGT-H),NO,NA,NA,67.417,11.883,18,2007-03-07,2007-03-07
011060,99999,ROEST III,NO,NA,NA,67.517,12.1,2,1928-01-01,2008-12-04
011070,99999,ROST (NOR-AFB),NO,NA,ENRS,67.517,12.1,4,1988-03-03,2018-06-16
011080,99999,VEGA-VALLSJO,NO,NA,NA,65.7,11.85,9.1,1991-08-01,2018-06-16
011090,99999,SKALVAER,NO,NA,NA,65.867,12.183,6,1973-01-01,1980-09-10
011100,99999,YTTERHOLMEN FYR,NO,NA,NA,66,11.683,33,1996-12-01,2005-03-19
011110,99999,BRONNOYSUND,NO,NA,NA,65.467,12.217,5,1973-01-16,2007-03-07
011120,99999,BRONNOY,NO,NA,ENBN,65.461,12.218,7.6,1973-01-01,2018-06-16
011130,99999,GLOMFJORD,NO,NA,NA,66.8,13.983,39,2004-04-06,2009-12-16
011133,99999,DAGALI,NO,NA,ENDI,60.417,8.513,798,1986-05-09,2003-04-27
011140,99999,REIPA,NO,NA,NA,66.9,13.633,8,2009-07-02,2018-06-16
011150,99999,MYKEN,NO,NA,NA,66.767,12.483,13,1973-01-01,2018-06-16
011160,99999,STOKKA,NO,NA,ENST,65.95,12.467,17.1,1973-04-01,2018-06-16
011170,99999,TJOTTA,NO,NA,NA,65.817,12.417,21,2004-01-19,2018-06-16
011210,99999,SOLVAER III,NO,NA,NA,66.367,12.617,10,1973-01-01,2018-06-16
011220,99999,KJAERSTAD,NO,NA,ENMS,65.784,13.215,72.2,1988-10-14,2018-06-16
011240,99999,SNASA,NO,NA,NA,64.167,12.467,195,2005-02-18,2018-06-16
011310,99999,GLAPEN LIGHTHOUSE,NO,NA,NA,67.883,13.05,31,1973-01-01,1985-06-25
011320,99999,MAJAVATN V,NO,NA,NA,65.167,13.367,319,2008-02-29,2018-06-16
011330,99999,LAKSFORS,NO,NA,NA,65.617,13.283,50,2011-11-29,2018-06-16
011340,99999,MAJAVATN III,NO,NA,NA,65.183,13.417,339,1973-01-01,2007-06-30
011350,99999,SELJELIA,NO,NA,NA,66.117,13.583,123,2011-11-29,2018-06-16
011370,99999,STOTT,NO,NA,NA,66.933,13.45,12,1973-08-06,2007-03-07
011380,99999,TENNHOLMEN (LGT-H),NO,NA,NA,67.3,13.5,14,1985-09-12,2007-03-07
011390,99999,VAEROY HELIPORT,NO,NA,ENVR,67.65,12.717,4,2011-09-28,2018-06-16
011410,99999,LEKNES,NO,NA,ENLK,68.15,13.617,26,1973-06-20,2018-06-16
011430,99999,DRAG-AJLUOKTA,NO,NA,NA,68.05,16.083,19,2007-08-06,2018-06-16
011440,99999,HELLIGVAER II,NO,NA,NA,67.4,13.883,24,2005-03-15,2018-06-16
011450,99999,KVALNES I LOFOTEN,NO,NA,NA,68.35,13.967,15,1973-01-01,1982-05-04
011460,99999,SKAMDAL,NO,NA,NA,66.233,13.883,5,1973-01-01,2018-06-16
011470,99999,VARNTRESK,NO,NA,NA,65.833,14.183,406,1940-09-07,2018-06-16
011480,99999,STORFORSHEI,NO,NA,NA,66.383,14.517,110,2011-06-16,2018-06-16
011490,99999,RANA-BASMOEN,NO,NA,NA,66.333,14.1,42,1973-01-01,2007-02-28
011500,99999,HJARTASEN,NO,NA,NA,66.5,14.95,251,1973-01-03,2018-06-16
011501,99999,HATTFJELLDAL-KRUTA,NO,NA,NA,65.683,14.167,385,2002-03-12,2002-03-12
011510,99999,MOIRANA,NO,NA,ENRA,66.367,14.3,70,1973-04-01,2018-06-16
011520,99999,BODO,NO,NA,ENBO,67.269,14.365,12.8,1940-09-17,2018-06-16
011530,99999,BODO-VAGONES,NO,NA,NA,67.283,14.45,33,2011-10-03,2014-06-11
011540,99999,LITLOY FYR,NO,NA,NA,68.583,14.3,30,1994-04-06,2017-08-01
011550,99999,BO I VESTERALEN II,NO,NA,NA,68.633,14.467,12,1973-01-01,2004-12-01
011560,99999,BO I VESTERALEN,NO,NA,NA,68.6,14.433,7.6,2004-05-10,2018-06-16
011580,99999,SETSA,NO,NA,NA,67.167,15.483,8,2010-01-14,2018-06-16
011600,99999,SKROVA FYR,NO,NA,NA,68.15,14.65,11,1973-01-01,2018-06-16
011610,99999,SVOLVAER/HELLE,NO,NA,ENSH,68.25,14.667,9,1973-06-20,2018-06-16
011620,99999,STORKMARKNES/SKAGEN,NO,NA,ENSK,68.583,15.017,3,1973-06-20,2018-06-16
011630,99999,BOLNA,NO,NA,NA,66.5,15.25,549,1973-01-01,1977-08-23
011650,99999,GROTOY,NO,NA,NA,67.833,14.783,6,1973-01-01,1978-10-31
011670,99999,SORTLAND,NO,NA,NA,68.7,15.417,3,1985-02-01,2018-06-16
011680,99999,KLEIVA I SORTLAND,NO,NA,NA,68.65,15.283,23,1973-01-01,2006-06-11
011690,99999,SALTDAL-NORDNES,NO,NA,NA,66.933,15.317,37,1983-01-01,2018-06-16
011691,99999,OVRE SALTDAL,NO,NA,NA,66.967,15.317,26,1973-01-01,1978-10-08
011700,99999,FAUSKE-VETEN,NO,NA,NA,67.233,15.317,165,1973-01-01,1990-03-07
011720,99999,FINNOY I HAMAROY,NO,NA,NA,68,15.617,53,1973-01-01,2006-03-11
011751,99999,LODINGEN,NO,NA,NA,68.4,16,10,2004-01-08,2004-01-08
011760,99999,KONGSVIK,NO,NA,NA,68.567,16.267,25,1973-01-01,1978-01-18
011800,99999,HARSTAD,NO,NA,NA,68.8,16.533,45,2004-05-10,2018-06-16
011820,99999,EVENSKJER,NO,NA,NA,68.583,16.583,7,1973-01-01,1985-11-19
011830,99999,EVENES,NO,NA,ENEV,68.491,16.678,25.6,1975-09-05,2018-06-16
011840,99999,SANDSOY I SENJA,NO,NA,NA,68.933,16.683,45,1973-01-01,1978-06-13
011841,99999,SANDSOY,NO,NA,NA,68.933,16.683,45,2007-03-07,2007-03-07
011890,99999,LILAND,NO,NA,NA,68.483,16.883,19,1973-01-02,2005-03-02
011910,99999,SKJOMEN-SLETTJORD,NO,NA,NA,68.283,17.317,6,1973-01-01,1996-11-04
011920,99999,STRAUMSNES,NO,NA,NA,68.417,17.65,200,2011-02-03,2018-06-16
011930,99999,NARVIK III/FRAMNES,NO,NA,ENNK,68.467,17.5,23,2001-07-06,2017-04-03
011940,99999,NARVIK III,NO,NA,ENNK,68.467,17.5,23,1973-01-01,2005-04-05
011960,99999,TENNEVOLL,NO,NA,NA,68.75,17.817,21,1973-01-01,2002-08-08
011980,99999,DIVIDALEN II,NO,NA,NA,68.783,19.7,204,2010-01-14,2018-06-16
011990,99999,SIHCCAJAVRI,NO,NA,NA,68.75,23.533,382,1949-01-01,2018-06-16
012030,99999,KRAKENES,NO,NA,NA,62.033,4.983,41,1931-09-04,2018-06-16
012050,99999,SVINOY LH,NO,NA,NA,62.333,5.267,37.2,1973-01-01,2018-06-16
012070,99999,FISKABYGD,NO,NA,NA,62.1,5.583,41,2004-05-10,2018-06-16
012090,99999,ORSTA-VOLDA/HOVDEN,NO,NA,ENOV,62.183,6.067,74,1984-12-11,2018-06-16
012091,99999,ORSTA-VOLDA/HOVD,NO,NA,ENOV,62.183,6.05,74,1984-09-10,1984-11-27
012100,99999,VIGRA,NO,NA,ENAL,62.56,6.11,21,1973-01-01,2018-06-16
012120,99999,ONA II,NO,NA,NA,62.867,6.533,15,1955-01-01,2018-06-16
012140,99999,REKDAL,NO,NA,NA,62.65,6.767,43,2009-01-12,2018-06-16
012150,99999,HJELVIK MYRBO,NO,NA,NA,62.62,7.23,35,1973-01-01,2009-06-30
012160,99999,HJELVIK I ROMSDAL,NO,NA,NA,62.617,7.217,16,1973-12-26,2002-05-27
012161,99999,GJERMUNDNES,NO,NA,NA,62.617,7.167,49,2004-04-12,2004-04-12
012170,99999,ARO,NO,NA,ENML,62.745,7.263,3,1976-02-01,2018-06-16
012180,99999,TAFJORD,NO,NA,NA,62.233,7.417,17,1973-01-01,2018-06-16
012200,99999,MANNEN,NO,NA,NA,62.45,7.767,1294,2010-03-15,2018-06-16
012210,99999,TAGDALEN,NO,NA,NA,63.05,9.083,415,2008-01-15,2018-06-16
012230,99999,KVERNBERGET,NO,NA,ENKB,63.112,7.825,62.2,1973-01-01,2018-06-16
012240,99999,AALESUND,NO,NA,NA,62.467,6.217,50,1984-12-01,2018-06-16
012250,99999,VEIHOLMEN,NO,NA,NA,63.517,7.95,5,1973-01-01,2018-06-16
012270,99999,INNERDALEN,NO,NA,NA,62.717,8.783,405,1973-01-01,2018-06-16
012273,99999,TINGVOLL-HANEM,NO,NA,NA,62.833,8.3,69,2015-01-08,2015-01-08
012280,99999,SULA,NO,NA,NA,63.85,8.467,6,1973-01-01,2018-06-16
012300,99999,BJORLI,NO,NA,NA,62.267,8.2,579,1973-01-01,2018-06-16
012310,99999,LESJASKOG,NO,NA,NA,62.233,8.367,621,1977-10-30,2008-07-31
012320,99999,VINJEORA II,NO,NA,NA,62.45,7.85,67,1973-01-01,2018-06-16
012330,99999,DOMBAAS,NO,NA,NA,62.083,9.117,638,1936-01-01,2018-06-16
012340,99999,ORKDAL-THAMSHAMN,NO,NA,NA,63.317,9.85,4,2006-11-21,2018-06-16
012350,99999,DOMBAS-KIRKENAER,NO,NA,NA,62.083,9.133,645,1973-01-01,1976-06-02
012360,99999,KJOREMSGRENDE,NO,NA,NA,62.1,9.05,626,2005-02-18,2010-01-04
012370,99999,HITRA,NO,NA,NA,63.517,9.117,13,2005-04-02,2018-06-16
012380,99999,FOKSTUA II,NO,NA,NA,62.117,9.283,974,1973-01-01,2018-06-16
012390,99999,HJERKINN II,NO,NA,NA,62.217,9.55,1012,2010-09-07,2018-06-16
012400,99999,HALTEN FYR,NO,NA,NA,64.167,9.4,16,1985-01-10,2018-06-16
012410,99999,ORLAND,NO,NA,ENOL,63.699,9.604,8.5,1973-01-01,2018-06-16
012420,99999,AFJORD II,NO,NA,NA,63.967,10.217,30,2008-01-15,2018-06-16
012430,99999,SONGLI,NO,NA,NA,63.333,9.65,300,1973-01-01,1976-11-19
012450,99999,OPPDAL-SETER,NO,NA,NA,62.6,9.667,606,1976-02-01,2018-06-16
012480,99999,VALLERSUND,NO,NA,NA,63.85,9.733,4,1973-01-01,1975-12-19
012500,99999,FOLLDAL-FREDHEIM,NO,NA,NA,62.133,10,694,2011-09-28,2018-06-16
012520,99999,BERKAK-LYNGHOLT,NO,NA,NA,62.817,10.017,475,1973-01-01,2008-09-30
012530,99999,SOKNEDAL,NO,NA,NA,62.95,10.183,299,2009-01-12,2018-06-16
012540,99999,KOTSOY,NO,NA,NA,62.983,10.55,127,2009-01-12,2018-06-16
012570,99999,TRONDHEIM/VOLL,NO,NA,NA,63.417,10.45,131.5,2004-04-06,2018-06-16
012580,99999,TRONDHEIM (TYHOLT),NO,NA,NA,63.417,10.433,113,1973-01-01,1981-07-14
012590,99999,BUHOLMRASA LH,NO,NA,NA,64.4,10.45,18.4,1973-01-01,2018-06-16
012620,99999,NORDOYAN FYR,NO,NA,NA,64.8,10.55,33,1928-01-02,2018-05-15
012650,99999,TYNSET-HANSMOEN,NO,NA,NA,62.267,10.733,482.3,1949-01-01,2018-06-16
012700,99999,KVITHAMAR,NO,NA,NA,63.483,10.883,40,2011-10-03,2018-06-16
012710,99999,VAERNES,NO,NA,ENVA,63.458,10.94,17.1,1940-04-13,2018-06-16
012720,99999,FROSTA,NO,NA,NA,63.567,10.7,70,2011-09-29,2018-06-16
012730,99999,SELBU,NO,NA,NA,63.233,11.017,160,2007-10-16,2018-06-16
012740,99999,SELBU-STUBBE,NO,NA,NA,63.2,11.117,242,1973-01-01,2006-11-15
012770,99999,STEINKJER,NO,NA,NA,64.017,11.45,80,1973-01-01,2018-06-16
012771,99999,LEVANGER-EGGEN,NO,NA,NA,63.717,11.233,97,1973-01-01,1973-02-16
012780,99999,VERDAL-REPPE,NO,NA,NA,63.783,11.683,83,1985-01-02,2018-06-16
012800,99999,NAMDALSEID-VENGSTAD,NO,NA,NA,64.133,11.333,118,1973-01-01,2008-12-31
012810,99999,NAMSSKOGAN,NO,NA,NA,64.733,12.85,140,2007-01-05,2018-06-16
012820,99999,RORVIK/RYUM,NO,NA,ENRM,64.85,11.233,14,1995-09-01,2018-06-16
012823,99999,RORVIK/RYUM,NO,NA,NA,64.85,11.233,14,1991-08-27,1995-08-31
012870,99999,SOLENDET,NO,NA,NA,62.683,11.817,747,2008-01-15,2018-06-16
012880,99999,ROROS,NO,NA,NA,62.567,11.383,630,1973-01-01,2018-06-16
012890,99999,ROROS LUFTHAVN,NO,NA,ENRO,62.583,11.35,626,1984-09-09,2005-04-05
012891,99999,ROROS/AIRPORT,NO,NA,ENRO,62.583,11.383,626,1979-03-01,1984-08-17
012900,99999,NAMSOS AIRPORT,NO,NA,ENNM,64.467,11.583,2,1973-04-01,2018-06-16
012910,99999,GARTLAND,NO,NA,NA,64.533,12.383,95,2009-01-12,2018-06-16
012920,99999,MERAKER-UTSYN,NO,NA,NA,63.417,11.7,240,1973-01-01,2004-09-30
012930,99999,MERAKER-EGGE,NO,NA,NA,63.417,11.733,171,2005-02-15,2018-06-16
012950,99999,HOYLANDET,NO,NA,NA,64.55,12.15,27,1973-01-01,2007-06-12
012960,99999,BERG I SNASA,NO,NA,NA,64.25,12.417,127,1973-01-01,1977-06-06
012980,99999,NORDLI-HOLAND,NO,NA,NA,64.45,13.717,433,1973-01-01,2018-06-16
013000,99999,GULLFAKS C,NO,NA,NA,61.2,2.267,78,2001-06-01,2018-06-16
013005,99999,STATFJORD OIL PLATFORM HELIPO,FO,NA,ENSF,61.25,1.85,117.7,1984-12-04,2018-06-16
013040,99999,YTTEROYANE FYR,NO,NA,NA,61.567,4.683,25,1984-09-01,2018-06-16
013060,99999,HELLISOY FYR,NO,NA,NA,60.75,4.717,23,1973-01-01,2004-12-29
013070,99999,FEDJE,NO,NA,NA,60.75,4.717,20,2005-02-18,2018-06-16
013080,99999,FURUNESET,NO,NA,NA,61.3,5.05,7,2011-09-28,2018-06-16
013090,99999,KINN ISLAND,NO,NA,NA,61.567,4.8,10,1931-01-04,2005-10-22
013100,99999,FLORO,NO,NA,ENFL,61.584,5.025,11.3,1980-04-07,2018-06-16
013110,99999,FLESLAND,NO,NA,ENBR,60.293,5.218,51.8,1973-01-01,2018-06-16
013140,99999,FOSSMARK,NO,NA,NA,60.517,5.717,10,2012-06-15,2018-06-16
013150,99999,EVANGER,NO,NA,NA,60.633,6.1,17,2010-12-14,2018-06-16
013160,99999,BERGEN-FREDRIKSBERG,NO,NA,NA,60.4,5.317,40,1973-01-01,1985-12-30
013170,99999,BERGEN/FLORIDA,NO,NA,NA,60.383,5.333,36,1973-01-01,2018-06-16
013180,99999,SANDANE,NO,NA,NA,61.783,6.183,51,2005-06-14,2017-12-31
013190,99999,TAKLE,NO,NA,NA,61.033,5.383,38,1973-01-01,2018-06-16
013200,99999,SANDANE/ANDA,NO,NA,ENSD,61.833,6.117,60,1981-09-04,2018-06-16
013210,99999,STRYN,NO,NA,NA,61.9,6.55,208,1973-01-01,2018-06-16
013220,99999,FORDE-TEFRE,NO,NA,NA,61.467,5.917,64,1973-01-01,2017-12-23
013230,99999,BRINGELAND,NO,NA,ENBL,61.393,5.764,327,1984-05-02,2018-06-16
013250,99999,MODALEN II,NO,NA,NA,60.833,5.95,114,1973-01-01,2008-09-24
013260,99999,MODALEN III,NO,NA,NA,60.85,5.983,125,2008-10-08,2018-06-16
013270,99999,KVAMSKOGEN-JONSHOGDI,NO,NA,NA,60.383,5.967,455,2006-11-21,2018-06-16
013280,99999,KVAMSKOGEN,NO,NA,NA,60.4,5.917,408,1973-01-01,2006-07-26
013290,99999,KVAMSOY,NO,NA,NA,60.35,6.267,50,2005-02-18,2018-06-16
013300,99999,OMASTRAND,NO,NA,NA,60.217,5.983,6,1973-01-01,2005-09-10
013320,99999,FJAERLAND BREMUSEET,NO,NA,NA,61.43,6.77,3,2006-02-01,2018-06-16
013340,99999,FJERLAND SKARESTAD,NO,NA,NA,61.433,6.767,10,2007-04-13,2007-04-13
013360,99999,BULKEN,NO,NA,NA,60.65,6.217,328,1973-01-01,2018-06-16
013370,99999,VOSSEVANGEN,NO,NA,NA,60.633,6.433,55,2005-02-18,2018-06-16
013380,99999,VANGSNES,NO,NA,NA,61.167,6.65,51,2004-07-06,2018-06-16
013390,99999,VANGSNES,NO,NA,NA,61.167,6.65,53,1973-01-01,2001-11-02
013400,99999,FET I EIDFJORD,NO,NA,NA,60.42,7.28,737,2005-07-26,2018-06-16
013410,99999,EIDFJORD-BU,NO,NA,NA,60.467,6.867,166,1983-01-01,2007-02-27
013420,99999,ULLENSVANG,NO,NA,NA,60.317,6.65,12,1973-01-01,2018-06-16
013440,99999,MJOLFJELL,NO,NA,NA,60.7,6.95,695,1973-01-01,2018-06-12
013450,99999,KLEVAVATNET,NO,NA,NA,60.717,7.217,960,1973-10-07,2018-06-16
013460,99999,MIDTSTOVA,NO,NA,NA,60.65,7.267,1162,2011-11-25,2018-06-16
013470,99999,SOGNDAL HAUKASEN,NO,NA,ENSG,61.156,7.137,511,1985-01-18,2018-06-16
013471,99999,SOGNDAL/HAUKASEN,NO,NA,ENSG,61.167,7.133,498,1984-08-01,1984-12-17
013500,99999,FINSEVATN,NO,NA,NA,60.6,7.533,1208,2003-03-30,2018-06-16
013510,99999,FINSE III,NO,NA,NA,60.6,7.5,1224,1973-01-02,2001-12-10
013520,99999,SANDHAUG,NO,NA,NA,60.183,7.483,1250,2004-01-07,2018-06-16
013550,99999,LAERDAL IV,NO,NA,NA,61.1,7.5,5,1973-01-01,2018-06-16
013560,99999,FANNARAKI,FO,NA,NA,61.517,7.9,2062,1988-11-25,2014-08-27
013570,99999,HOLLEKOLTEN,NO,NA,NA,60.867,8.517,804.2,1973-01-01,2018-06-16
013580,99999,HEMSEDAL II,NO,NA,NA,60.85,8.6,604,2011-09-29,2018-06-16
013590,99999,GEILO-OLDEBRATEN,NO,NA,NA,60.533,8.2,773,1973-01-01,2018-06-16
013591,99999,HAUGASTOL,NO,NA,NA,60.517,7.867,988,2007-03-07,2007-03-07
013600,99999,BRATA-SLETTOM,NO,NA,NA,61.9,7.9,664,1973-01-01,2018-06-16
013610,99999,GROTLI III,NO,NA,NA,62.017,7.667,872,1973-01-01,2018-06-16
013620,99999,JUVVASSHOE,NO,NA,NA,61.667,8.367,1894,2009-06-26,2018-06-16
013640,99999,FILEFJELL,NO,NA,NA,61.183,8.117,955.1,1949-01-01,2018-06-10
013650,99999,BEITOSTOLEN II,NO,NA,NA,61.251,8.917,965,1973-04-04,2018-06-16
013660,99999,SOGNEFJELL,NO,NA,NA,61.567,8,1413,1979-03-01,2018-06-16
013670,99999,FAGERNES,NO,NA,NA,60.983,9.217,365.4,1982-10-01,2018-06-16
013671,99999,BEITOSTOLEN,NO,NA,NA,61.233,8.933,828,1973-01-01,1980-11-05
013680,99999,LEIRIN,NO,NA,ENFG,61.016,9.288,822,1988-10-14,2018-06-16
013690,99999,ABJORSBRATEN,NO,NA,NA,60.917,9.283,639,1988-10-01,2017-12-30
013700,99999,SKABU,NO,NA,NA,61.517,9.4,928,1973-01-01,2018-06-16
013710,99999,LOKEN I VOLBU,NO,NA,NA,61.117,9.067,521,1973-01-01,2018-06-16
013720,99999,NESBYEN-SKOGLUND,NO,NA,NA,60.567,9.133,167,1973-01-01,2004-01-21
013730,99999,NESBYEN-TODOKK,NO,NA,NA,60.567,9.133,166,1973-01-01,2018-06-16
013740,99999,VEST-TORPA II,NO,NA,NA,60.933,10.033,542,1981-05-01,2018-06-16
013743,99999,FAGERNES/LEIRIN   &,NO,NA,NA,61,9.3,822,1988-01-05,1988-09-13
013750,99999,KVITFJELL,NO,NA,NA,61.467,10.133,1028,1973-01-01,2018-06-16
013755,99999,GULLFAX (PLATFORM),NO,NA,ENGC,61.033,2.033,10,1989-11-15,2018-06-16
013760,99999,GULSVIK II,NO,NA,NA,60.383,9.6,142,1973-01-01,2018-06-16
013780,99999,LILLEHAMMER-SAETHERENGEN,NO,NA,NA,61.1,10.467,239,1973-01-01,2018-06-16
013790,99999,SOR-NESSET,NO,NA,NA,61.883,10.15,739,1973-01-01,2005-12-09
013800,99999,VENABU,NO,NA,NA,61.65,10.117,930,1985-01-10,2018-06-16
013801,99999,KITTILBU,NO,NA,NA,61.167,9.967,816,1974-11-14,1984-08-27
013810,99999,APELSVOLL,NO,NA,NA,60.7,10.867,264,2011-10-03,2018-06-16
013820,99999,KISE,NO,NA,NA,60.767,10.8,128,1973-01-01,2018-06-16
013830,99999,EVENSTAD-DIH,NO,NA,NA,61.4,11.08,255,1973-01-01,2018-06-16
013839,99999,HAMAR / STAFSBERG,NO,NA,ENHA,60.817,11.067,223,1987-02-05,1990-02-22
013840,99999,GARDERMOEN,NO,NA,ENGM,60.194,11.1,207.6,1940-05-11,2018-06-16
013850,99999,HAMER,NO,NA,NA,60.817,11.067,222.3,2006-10-24,2018-06-16
013860,99999,HAMAR II,NO,NA,NA,60.8,11.1,132,2009-07-01,2018-06-16
013870,99999,FAVANG,NO,NA,NA,61.45,10.183,200,2011-09-29,2018-06-16
013890,99999,RENA AP,NO,NA,NA,61.183,11.367,255.7,1973-01-01,2018-06-16
013910,99999,FLISA,NO,NA,NA,60.617,12.017,188,1973-01-01,2005-03-31
013920,99999,FLISA II,NO,NA,NA,60.617,12.017,185,2005-02-18,2018-06-16
013930,99999,DREVSJO,NO,NA,NA,61.883,12.033,673.5,1973-01-01,2018-06-16
013970,99999,TRYSIL VEGSTASJON,NO,NA,NA,61.3,12.267,361.4,1973-01-01,2018-06-16
014000,99999,EKOFISK,NO,NA,NA,56.55,3.217,48.8,1998-12-23,2018-06-16
014010,99999,FRIGG,NO,NA,NA,59.983,2.25,48,2001-06-01,2007-03-07
014030,99999,UTSIRA FYR,NO,NA,NA,59.3,4.867,56.3,1928-01-02,2018-06-16
014033,99999,EKOFISK OIL PLTFRM,NO,NA,ENEK,56.55,3.25,48.8,1981-05-06,2018-06-16
014035,99999,KARMOY,NO,NA,NA,59.35,5.217,23,1975-11-01,1984-08-07
014060,99999,SLATTEROY FYR,NO,NA,NA,59.917,5.067,16,1973-01-01,2018-06-16
014080,99999,KARMOY,NO,NA,ENHD,59.345,5.208,26.2,1984-09-09,2018-06-16
014090,99999,SKUDENES,NO,NA,NA,59.15,5.25,7,2005-02-18,2005-10-28
014110,99999,KVITSOY - NORDBO,NO,NA,NA,59.067,5.417,22,2005-06-12,2018-06-16
014120,99999,OBRESTAD,NO,NA,NA,58.65,5.567,26,1973-01-01,2018-06-16
014130,99999,SAERHEIM,NO,NA,NA,58.75,5.65,87,2011-09-28,2018-06-16
014140,99999,ROVER,NO,NA,NA,59.433,5.067,25,1989-05-20,2018-06-16
014150,99999,SOLA,NO,NA,ENZV,58.877,5.638,8.8,1940-04-10,2018-06-16
014160,99999,STAVANGER VAALAND,NO,NA,NA,58.95,5.733,72,2008-07-24,2018-06-16
014170,99999,NEDRE VATS,NO,NA,NA,59.483,5.75,65,1973-01-03,2018-06-16
014180,99999,AUSTEVOLL,NO,NA,NA,60.017,5.2,32,1973-01-01,2018-06-16
014190,99999,LIARVATN,NO,NA,NA,59.05,6.117,300,2010-07-02,2018-06-16
014211,99999,INDRE MATRE,NO,NA,NA,59.85,6,24,2002-03-14,2002-03-14
014220,99999,FISTER SIGMUNDSTAD,NO,NA,NA,59.167,6.033,25,2007-06-05,2018-06-16
014230,99999,FISTER-TONNEVIK,NO,NA,NA,59.167,6.05,50,1973-01-01,2007-05-29
014240,99999,SAUDA,NO,NA,NA,59.65,6.367,6,1973-01-01,2018-06-16
014250,99999,EIK HOVE,NO,NA,NA,58.517,6.517,66,1973-01-01,2018-06-16
014260,99999,EIGEROYA,NO,NA,NA,58.433,5.867,49,2004-04-25,2018-06-16
014270,99999,LISTA FYR,NO,NA,NA,58.117,6.567,14,1928-01-01,2018-06-16
014280,99999,LISTA,NO,NA,ENLI,58.099,6.626,8.8,1973-01-01,2007-08-13
014281,99999,ULA OIL PLATFORM,NO,NA,ENLA,59.111,2.846,94,2013-08-06,2018-06-16
014300,99999,MANDAL II,NO,NA,NA,58.017,7.45,138,1973-01-01,2018-06-16
014310,99999,SIRDAL-SINNES,NO,NA,NA,58.933,6.917,557,2007-08-06,2018-06-16
014320,99999,SIRDAL-TJORHOM,NO,NA,NA,58.883,6.85,500,1974-11-14,2010-03-31
014321,99999,FIDJELAND,NO,NA,NA,58.967,6.933,568,2007-03-07,2007-03-07
014330,99999,MIDTLAEGER,NO,NA,NA,59.833,6.983,1081,1973-01-01,2015-05-28
014340,99999,VAAGSLI,NO,NA,NA,59.767,7.367,822,2004-04-06,2018-06-16
014350,99999,HAUKELISETER TESTFELT,NO,NA,NA,59.817,7.217,989.5,1985-01-11,2018-06-12
014360,99999,LINDESNES FYR,NO,NA,NA,57.983,7.05,13,1973-01-01,2018-06-16
014390,99999,KONSMO-HOYLAND,NO,NA,NA,58.25,7.442,260,1973-01-01,2018-06-16
014400,99999,BLASJO,NO,NA,NA,59.333,6.867,1104.6,1973-01-01,2018-06-16
014410,99999,HOVDEN-LUNDANE,NO,NA,NA,59.583,7.383,836,1983-01-01,2018-06-16
014420,99999,BYGLANDSFJORD,NO,NA,NA,58.667,7.8,211,1973-01-01,2018-06-16
014440,99999,VALLE,NO,NA,NA,59.2,7.517,302,2011-09-26,2018-06-16
014450,99999,SKAFSA,NO,NA,NA,59.45,8,77,1973-01-01,1989-11-13
014460,99999,OYFJELL-TROVATN,NO,NA,NA,59.567,8.2,714,1983-01-01,2004-07-31
014470,99999,HOYDALSMO II,NO,NA,NA,59.5,8.2,562,2006-11-21,2018-06-16
014480,99999,OKSOY FYR,NO,NA,NA,58.067,8.05,8,1949-01-01,2018-06-16
014490,99999,GJERSTAD,NO,NA,NA,58.867,9.033,32,2012-01-05,2018-06-16
014500,99999,MOSSTRAND II,NO,NA,NA,59.833,8.183,977,1973-01-01,2018-06-16
014520,99999,KJEVIK,NO,NA,ENCN,58.204,8.085,17.4,1940-05-01,2018-06-16
014530,99999,HYNNEKLEIV,NO,NA,NA,58.6,8.417,162,2012-01-05,2018-06-16
014550,99999,TVEITSUND,NO,NA,NA,59.033,8.517,252,1973-01-01,2018-06-16
014590,99999,NELAUG,NO,NA,NA,58.65,8.633,142,1973-01-01,2018-06-16
014600,99999,GULLHOLMEN,NO,NA,NA,59.433,10.583,14,2012-11-02,2018-06-16
014611,99999,GAUSTATOPPEN,NO,NA,NA,59.85,8.65,1803.7,2014-06-05,2018-06-16
014620,99999,PORSGRUNN,NO,NA,NA,59.083,9.667,90,2013-07-29,2018-06-16
014630,99999,AS,NO,NA,NA,59.65,10.767,89,2011-09-29,2018-06-16
014640,99999,LANDVIK,NO,NA,NA,58.333,8.517,6,2011-09-28,2018-06-16
014650,99999,TORUNGEN FYR,NO,NA,NA,58.4,8.783,15,1973-01-01,2018-06-16
014660,99999,KJELLER AP,NO,NA,NA,59.967,11.033,109,2011-09-28,2018-06-16
014670,99999,LYNGOR FYR,NO,NA,NA,58.633,9.15,5,1973-01-01,2018-06-16
014680,99999,KONGSVINGER,NO,NA,NA,60.183,12,148,2006-10-03,2018-06-16
014690,99999,HONEFOSS-HOYBY,NO,NA,NA,60.167,10.25,140,2005-07-19,2018-06-16
014700,99999,GVARV,NO,NA,NA,59.383,9.2,93,1973-01-01,2016-03-15
014703,99999,NOTODDEN,NO,NA,ENNO,59.566,9.212,19.2,1990-10-19,2018-06-16
014710,99999,VEGGLI II,NO,NA,NA,60.05,9.15,275,2006-10-03,2018-06-16
014730,99999,KONGSBERG BRANNSTASJON,NO,NA,NA,59.617,9.633,173,2004-05-10,2018-06-16
014740,99999,LYNGDAL I NUMEDAL,NO,NA,NA,59.9,9.533,294,1973-01-01,2006-08-31
014750,99999,SKIEN-GEITERYGGEN,NO,NA,ENSN,59.183,9.567,141,1985-07-17,2005-04-11
014760,99999,JOMFRULAND FYR,NO,NA,NA,58.85,9.55,5,1973-01-01,2018-06-16
014770,99999,KONNERUD,NO,NA,NA,59.717,10.15,193,1973-01-01,2018-06-16
014780,99999,SVENNER LH,NO,NA,NA,58.967,10.15,15,1973-01-01,2018-06-16
014800,99999,DRAMMEN BERSKOG,NO,NA,NA,59.75,10.133,8,2005-02-18,2018-06-16
014810,99999,MELSOM,NO,NA,NA,59.233,10.35,26,1974-05-19,2018-06-16
014820,99999,FERDER LH,NO,NA,NA,59.033,10.517,7.7,1931-01-01,2018-06-16
014825,99999,TORP,NO,NA,ENTO,59.187,10.259,87.2,2005-03-29,2018-06-16
014830,99999,TORP,NO,NA,NA,59.183,10.267,88,1973-01-01,2010-03-10
014840,99999,AURSKOG,NO,NA,NA,59.917,11.583,128,1973-01-01,2018-06-16
014843,99999,OSEBERG,NO,NA,ENOA,59.317,10.45,15,1990-10-19,2018-06-16
014850,99999,DANDE-GALLEBERG,NO,NA,NA,59.617,10.217,60,2011-09-28,2018-06-16
014860,99999,ASKER,NO,NA,NA,59.85,10.433,163,2004-05-10,2018-06-16
014870,99999,ALNA,NO,NA,NA,59.933,10.833,90,2004-09-24,2015-06-01
014880,99999,HAKADAL,NO,NA,NA,60.117,10.833,170,1953-01-01,2018-06-16
014881,99999,STATFJORD B OIL PLATFORM,NO,NA,ENFB,61.206,1.829,142,1940-04-07,2018-06-16
014890,99999,BJORNHOLT,NO,NA,NA,60.05,10.683,360,2011-09-28,2018-06-06
014900,99999,TRYVANNSHOGDA,NO,NA,NA,59.983,10.683,528,1973-01-01,2018-06-16
014920,99999,OSLO-BLINDERN,NO,NA,NA,59.95,10.717,97,1973-08-03,2018-06-16
014930,99999,SARPSBORG,NO,NA,NA,59.283,11.117,57,2004-05-10,2018-06-16
014940,99999,RYGGE,NO,NA,ENRY,59.379,10.786,53,1973-01-01,2018-06-16
014950,99999,STROMTANGEN FYR,NO,NA,NA,59.15,10.833,10,2004-04-06,2018-06-16
014960,99999,HOLAND-FOSSER,NO,NA,NA,59.817,11.483,154,1973-01-01,2007-10-20
014970,99999,PRESTEBAKKE,NO,NA,NA,59,11.533,157,1973-01-01,2010-04-09
014980,99999,MAGNOR,NO,NA,NA,59.967,12.217,153,1983-01-01,2005-08-31
015000,99999,RAKKESTAD,NO,NA,NA,59.383,11.383,100,2009-07-08,2009-12-16
020001,99999,LJUNGBYHED,SW,NA,ESTL,56.083,13.213,42.7,2004-05-10,2018-06-16
020120,99999,RITSEM,SW,NA,NA,67.733,17.467,521,1981-08-01,2005-09-24
020130,99999,RITSEM,SW,NA,NA,67.733,17.467,542.7,2001-06-01,2018-06-16
020180,99999,SUORVA,SW,NA,NA,67.533,18.233,415,1935-01-01,1938-12-31
020190,99999,KATTERJAKK A,SW,NA,NA,68.417,18.167,516,2008-10-27,2018-06-16
020200,99999,KATTERJAKK,SW,NA,NA,68.417,18.167,517,1935-01-01,2018-06-16
020220,99999,ABISKO,SW,NA,NA,68.35,18.817,394,2001-11-07,2005-12-28
020230,99999,TORNEHAMN (AUT),SW,NA,NA,68.433,18.633,512,1986-04-27,2005-05-26
020240,99999,STORA SJOFALLET,SW,NA,NA,67.5,18.3,425,2001-06-01,2018-06-16
020260,99999,ALUOKTA,SW,NA,NA,67.317,18.883,385,2002-10-23,2005-09-30
020290,99999,TARFALA,SW,NA,NA,67.917,18.6,1146,2001-06-01,2018-06-16
020310,99999,RENSJON,SW,NA,NA,68.067,19.833,493,2001-06-01,2018-06-16
020320,99999,TORNETRASK LAKE,SW,NA,NA,68.217,19.717,393,1977-07-01,2003-09-09
020360,99999,NIKKALUOKTA,SW,NA,NA,67.85,19.033,468,1977-07-01,2018-06-16
020380,99999,LATNIVAARA,SW,NA,NA,67.25,20.267,453,2001-06-01,2018-06-16
020430,99999,ESRANGE,SW,NA,NA,67.933,21.067,341,1994-03-01,1999-06-30
020440,99999,KIRUNA,SW,NA,ESNQ,67.822,20.337,459.6,1977-07-01,2018-06-16
020450,99999,KIRUNA-SOL,SW,NA,NA,67.833,20.417,424,1995-04-01,2003-09-22
020480,99999,MALMBERGET,SW,NA,NA,67.167,20.667,375,1935-01-01,1991-05-05
020490,99999,GALLIVARE,SW,NA,ESNG,67.132,20.815,313,1979-08-03,2018-06-16
020500,99999,RIKSGRANSEN,SW,NA,NA,68.417,18.117,508,1973-01-01,1977-06-30
020510,99999,KARESUANDO,SZ,NA,NA,68.45,22.5,327.1,1955-01-01,1959-12-31
020520,99999,KVIKKJOKK         &,SW,NA,NA,66.95,17.75,337,1955-01-01,1977-06-30
020530,99999,MALMBERGET,SW,NA,NA,67.133,20.667,365,1955-01-01,1977-06-30
020540,99999,NEDRE SOPPERO,SW,NA,NA,68.05,21.75,360,1955-01-01,2016-04-21
020550,99999,NAIMAKKA,SW,NA,NA,68.683,21.533,402,1973-01-01,2018-06-16
020560,99999,STENSELE,SZ,NA,NA,65.067,17.167,330.1,1955-01-01,1959-12-31
020570,99999,KALLAX/LULEA (AFB),SW,NA,ESPA,65.55,22.133,17,1955-01-01,1977-06-30
020580,99999,HAPARANDA         &,SW,NA,NA,65.833,24.15,7,1973-01-01,1977-06-30
020590,99999,GADDEDE,SW,NA,NA,64.5,14.133,318,1955-01-01,1977-06-30
020600,99999,NAIMAKKA,SW,NA,NA,68.683,21.533,403,1955-01-01,2004-10-21
020620,99999,OSTERSUND FROSON AB,SW,NA,NA,63.183,14.5,376,1955-01-01,2005-08-15
020630,99999,ASELE,SW,NA,NA,64.167,17.367,329,1955-01-01,1977-06-30
020640,99999,SAITTAROVA,SW,NA,NA,67.333,22.233,240,1973-01-01,2018-06-16
020650,99999,SVEG              &,SW,NA,NA,62.033,14.367,360,1955-01-01,1977-06-30
020660,99999,SUNDSVALL/HARNOSAND,SW,NA,ESNN,62.533,17.45,4,1955-01-01,1977-06-30
020670,99999,SARNA,SW,NA,NA,61.683,13.133,505,1955-01-03,1977-06-30
020680,99999,DELSBO,SW,NA,NA,61.8,16.567,93,1973-01-01,1977-06-30
020690,99999,SODERHAMN (SWE-AFB),SW,NA,ESCL,61.267,17.1,26,1955-01-01,1977-06-30
020700,99999,GUSTAVSFORS       &,SW,NA,NA,60.15,13.8,198,1973-01-01,1977-06-30
020710,99999,NORRKOPING-SOL,SW,NA,NA,58.583,16.15,58,1955-01-01,1959-12-31
020711,99999,BORLANGE,SW,NA,NA,60.417,15.517,153,1973-01-01,1973-01-21
020720,99999,PARKALOMPOLO,SW,NA,NA,67.733,22.833,313,2001-06-01,2018-06-16
020730,99999,KARLSTAD          &,SW,NA,ESSQ,59.367,13.467,46,1955-01-01,1977-06-30
020740,99999,OREBRO/EKEBY,SW,NA,NA,59.267,15.333,33,1973-01-01,1977-06-30
020750,99999,VASTERAS/HASSLO AFB,SW,NA,ESCD,59.583,16.633,6,1973-01-01,1977-06-30
020760,99999,UPPSALA           &,SW,NA,ESCM,59.883,17.6,21,1973-01-01,1977-06-30
020770,99999,STOCKHOLM/BROMMA  &,SW,NA,ESSB,59.35,17.95,15,1955-01-01,1977-06-30
020790,99999,SATENAS (SWE-AFB),SW,NA,ESIB,58.433,12.7,54,1973-01-01,1977-06-30
020800,99999,KARESUANDO,SW,NA,NA,68.45,22.45,331,1935-01-01,2012-08-31
020810,99999,KARESUANDO,SW,NA,NA,68.45,22.45,330,1955-01-01,2018-06-16
020820,99999,LANDSORT          &,SW,NA,NA,58.75,17.867,32,1973-01-01,1977-06-30
020830,99999,GOTSKA SANDON     &,SW,NA,NA,58.4,19.2,12,1973-01-01,1977-06-30
020840,99999,LANNAVAARA        &,SW,NA,NA,68.05,22,360,1955-01-01,2004-05-07
020850,99999,RANGEDALA (AUTO),SW,NA,NA,57.717,13.117,259,1973-01-01,1977-06-30
020860,99999,LAINIO,SW,NA,NA,67.767,22.35,317,1955-01-01,2005-03-17
020870,99999,JONKOPING         &,SW,NA,ESSJ,57.767,14.083,226,1955-01-01,1977-06-30
020880,99999,KOMPELUSVAARA,SW,NA,NA,67.083,22.217,263,1973-01-01,2002-05-21
020890,99999,OLANDS NORRA UDDE &,SW,NA,NA,57.367,17.1,4,1973-01-01,1977-06-30
020900,99999,VISBY             &,SW,NA,ESSV,57.667,18.35,51,1955-01-01,1977-06-30
020910,99999,VISBY-SOL,SW,NA,NA,57.667,18.35,49,1973-01-01,1977-06-30
020920,99999,MUODOSLOMPOLO,SW,NA,NA,67.95,23.467,240,1973-01-01,2004-09-17
020930,99999,VAXJO             &,SW,NA,NA,56.867,14.8,166,1973-01-01,1977-06-30
020940,99999,UNGSKAR,SW,NA,NA,56.033,15.8,1,1955-01-01,1977-06-30
020950,99999,PAJALA,SW,NA,NA,67.2,23.383,171,1955-01-01,2018-06-16
020960,99999,PAJALA,SW,NA,NA,67.217,23.4,168,1955-01-01,2008-02-18
020970,99999,MALMO /BULLTOFTON,SZ,NA,NA,55.6,13.067,14.9,1955-01-01,1974-07-02
020980,99999,MALMO/STURUP,SW,NA,ESMS,55.55,13.367,72,1973-01-01,1977-06-30
020990,99999,YSTAD             &,SW,NA,NA,55.433,13.833,34,1973-01-01,1977-06-30
021000,99999,NAIMAKKA,SW,NA,NA,68.683,21.533,403,1973-01-01,1977-06-30
021010,99999,HEMAVAN,SW,NA,ESUT,65.806,15.083,458.1,1973-01-02,2018-06-16
021020,99999,STEKENJOKK,SW,NA,NA,65.1,14.517,1036,1958-11-01,2018-06-16
021030,99999,HEMAVAN-GIEREVARTO,SW,NA,NA,65.783,15.067,793,1987-11-18,2018-06-16
021040,99999,HEMAVAN,SW,NA,NA,65.817,15.083,485,1977-07-01,2008-02-18
021050,99999,ABELVATTNET,SW,NA,NA,65.533,14.983,670,1973-01-01,2004-02-21
021060,99999,JOKKMOKK (SWE-AFB),SW,NA,NA,66.6,19.833,256,1973-01-01,1977-06-30
021080,99999,KLIMPFJALL,SW,NA,NA,65.067,14.8,593,1977-07-01,2005-09-21
021090,99999,ABRAUR,SW,NA,NA,65.9,19.1,342,1973-01-02,1977-06-30
021100,99999,GIELAS,SW,NA,NA,65.333,15.067,577,1987-05-18,2018-06-16
021110,99999,VIDSEL (SWE-AFB),SW,NA,ESPE,65.867,20.133,180,1973-01-02,1977-06-30
021120,99999,SYLARNA,SW,NA,NA,63.05,12.267,1035,1977-07-01,2004-08-21
021140,99999,NORRAKER,SW,NA,NA,64.45,15.6,346,1975-08-07,1977-06-30
021150,99999,STORLIEN-VISJOVALE&,SW,NA,NA,63.3,12.133,640,1955-01-01,1977-06-30
021160,99999,MORSIL,SW,NA,NA,63.317,13.65,400,1973-01-01,2005-02-21
021170,99999,NORDMALING,SW,NA,NA,63.567,19.5,6,1955-01-01,1977-06-30
021180,99999,DIKANAS/SKANSNAS,SW,NA,NA,65.317,16.033,525,1973-01-01,2005-01-21
021190,99999,KVIKKJOKK ARRENJARKA,SW,NA,NA,66.883,18.017,320,1973-01-01,2018-06-16
021200,99999,KVIKKJOKK-ARRENJARKA,SW,NA,NA,66.883,18.017,315,1935-01-01,2013-03-31
021205,99999,STORUMAN,SW,NA,NA,64.95,17.7,279,2005-04-19,2018-06-16
021210,99999,MIERKENIS,SW,NA,NA,66.683,16.117,615,2001-06-01,2018-06-16
021220,99999,STENUDDEN,SW,NA,NA,66.533,17.667,453,1979-08-02,2004-03-21
021230,99999,JAKKVIK,SW,NA,NA,66.317,17.1,552,1973-01-01,2016-04-21
021240,99999,ARJEPLOG,SW,NA,NA,66.05,17.833,432,1977-04-05,2018-06-16
021250,99999,OSTMARK,SW,NA,NA,60.317,12.7,178,1973-01-01,1977-06-30
021260,99999,GUNNARN,SW,NA,NA,65.017,17.7,251,1973-01-01,2015-08-18
021270,99999,STENSELE,SW,NA,NA,65.067,17.167,327,1931-01-03,2005-08-23
021280,99999,GUNNARN,SW,NA,ESPD,65,17.7,283,1973-01-01,2013-04-02
021290,99999,GUNNARN SOL (AUT),SW,NA,NA,64.967,17.7,278,1973-01-01,1986-11-25
021300,99999,ROPARUDDEN,SW,NA,NA,66.483,16.417,481,1973-01-01,2016-04-21
021310,99999,ARVIKA,SW,NA,NA,59.667,12.583,75,1973-01-01,1977-06-30
021330,99999,SNAVLUNDA,SW,NA,NA,58.967,14.9,144,1973-01-01,1977-06-30
021350,99999,BURESJON,SW,NA,NA,65.567,17.867,393,1973-01-01,2018-06-16
021360,99999,STORBERG,SW,NA,NA,65.5,18.95,454,2003-05-19,2004-08-29
021380,99999,GRUNDKALLEN,SW,NA,NA,60.5,18.867,23,1973-01-01,1977-06-30
021410,99999,TJAKAAPE,SW,NA,NA,66.317,19.217,582,1973-01-01,2018-06-16
021420,99999,JOKKMOKK,SW,NA,ESNJ,66.496,20.147,275.5,1977-07-01,2000-05-10
021430,99999,PALJAMYREN,SW,NA,NA,66.217,19.133,570,1973-01-01,2003-07-31
021440,99999,ABRAUR,SW,NA,NA,65.983,18.933,374,1977-07-01,2004-06-26
021450,99999,TELLEJAUR,SW,NA,NA,66.15,19.633,436,2003-07-25,2004-03-22
021460,99999,VAJMAT,SW,NA,NA,66.5,19.683,324,2001-07-01,2016-04-21
021470,99999,MALA-BRANNAN,SW,NA,NA,65.15,18.6,363,1973-01-01,2018-06-16
021480,99999,NORRKOPING/BRAVALLA,SW,NA,ESCK,58.617,16.117,27,1973-01-01,1977-06-30
021490,99999,ARVIDSJAUR,SW,NA,NA,65.6,19.267,384,2001-07-01,2018-06-16
021500,99999,NYKOPING/SKAVST AFB,SW,NA,ESCJ,58.783,16.917,42,1973-01-01,1977-06-30
021510,99999,JOKKMOKK FPL,SW,NA,NA,66.483,20.167,275,1973-01-01,2018-06-16
021520,99999,SUDOK,SW,NA,NA,66.3,20.417,174,1973-01-01,2005-09-19
021540,99999,VIDSEL,SW,NA,ESPE,65.875,20.15,182,1977-07-01,2018-06-16
021550,99999,HAGSHULT (SWE-AFB),SW,NA,ESMV,57.3,14.133,169,1955-01-01,1977-06-30
021560,99999,STENSJON (AUT),SW,NA,NA,63.967,13.717,680,1977-07-01,2003-10-28
021580,99999,FALLFORS,SW,NA,NA,65.133,20.783,190,1979-07-26,2002-08-07
021590,99999,FALLFORS,SW,NA,ESUF,65.12,20.77,195,1996-08-01,2005-06-29
021600,99999,NATTAVAARA,SW,NA,NA,66.75,21.05,327,2001-08-29,2005-03-07
021610,99999,NATTAVAARA,SW,NA,NA,66.75,20.933,327,1973-01-01,2018-06-16
021620,99999,MARKARYD,SW,NA,NA,56.467,13.65,118,1973-01-01,1977-06-30
021630,99999,LJUNGBYHED(SWE-AFB),SW,NA,ESDA,56.083,13.233,43,1973-01-01,1977-06-30
021640,99999,PALKEM,SW,NA,NA,66.383,21.633,263,1973-05-01,2003-07-19
021660,99999,RONNEBY (SWE-AFB),SW,NA,ESDF,56.267,15.283,58,1973-01-01,1977-06-30
021670,99999,FALSTERBO (LGT-H),SW,NA,NA,55.383,12.817,5,1973-01-01,1977-06-30
021690,99999,HEDEN,SW,NA,ESPJ,65.867,21.45,36,2002-05-30,2002-08-01
021700,99999,SAVAST,SW,NA,NA,65.75,21.767,12,2010-11-17,2016-04-21
021710,99999,BODEN,SW,NA,NA,65.817,21.633,18,1979-08-02,2018-06-16
021720,99999,ALVSBYN,SW,NA,NA,65.683,20.967,50,1979-07-10,1979-11-23
021730,99999,ALVSBYN,SW,NA,NA,65.667,21.067,43,2001-07-01,2018-06-16
021740,99999,LAKATRASK,SW,NA,NA,66.283,21.133,186,2001-07-01,2018-06-16
021760,99999,PITE-RONNSKAR,SW,NA,NA,65.033,21.567,4,1997-09-01,2018-06-16
021810,99999,OVERKALIX SVARTBYN,SW,NA,NA,66.267,22.85,62,1996-08-01,2018-06-16
021820,99999,OVERKALIX,SW,NA,NA,66.267,22.833,47,1979-08-03,2002-06-02
021830,99999,LULEA-SOL,SW,NA,NA,65.55,22.117,32,2004-08-02,2004-10-20
021840,99999,PAHAROVA,SW,NA,NA,66.817,22.333,229,2001-07-01,2018-06-16
021850,99999,LULEA-KALLAX,SW,NA,NA,65.55,22.133,34,2001-04-02,2001-10-08
021860,99999,KALLAX,SW,NA,ESPA,65.544,22.122,19.8,1977-07-01,2018-06-16
021880,99999,RODKALLEN,SW,NA,NA,65.317,22.383,2,1973-01-01,2018-06-16
021900,99999,KORPILOMBOLO,SW,NA,NA,66.85,23.033,180,2001-07-16,2004-04-02
021910,99999,STORON,SW,NA,NA,65.7,23.1,4,2001-07-01,2018-06-16
021960,99999,HAPARANDA,SW,NA,NA,65.833,24.15,6,1931-01-01,2012-12-31
021970,99999,HAPARANDA,SW,NA,NA,65.817,24.117,16,2008-10-27,2018-06-16
021990,99999,YLINENJARVI,SW,NA,NA,66.617,23.467,132,2001-07-01,2018-06-16
022000,99999,EDEVIK,SW,NA,NA,63.983,12.867,425,1977-07-01,2004-12-25
022020,99999,TORNETRASK LAKE,SW,NA,NA,68.217,19.717,393,1973-01-01,1977-06-30
022040,99999,NIKKALUOKTA,SW,NA,NA,67.85,19.033,470,1973-01-01,1977-06-30
022060,99999,STORLIEN-STORVALLEN,SW,NA,NA,63.283,12.133,583,1935-01-01,2013-02-28
022070,99999,STORLIEN-VISJOVALEN A,SW,NA,NA,63.283,12.117,583,1973-01-01,2018-06-16
022090,99999,SYLARNA,SW,NA,NA,63.05,12.283,1030,1973-01-01,2018-06-16
022100,99999,BLAHAMMAREN,SW,NA,NA,63.183,12.167,1090,2010-09-20,2018-06-16
022150,99999,ARESKUTAN,SW,NA,NA,63.433,13.083,1280,1997-09-01,2004-08-22
022160,99999,MATTMAR,SW,NA,NA,63.3,13.883,365,1973-01-01,2016-04-21
022170,99999,ARE,SW,NA,NA,63.367,13.167,435,2001-07-01,2016-04-21
022180,99999,MORSIL,SW,NA,NA,63.317,13.65,400,1973-01-05,2005-09-24
022190,99999,GADDEDE A,SW,NA,NA,64.5,14.217,550,2008-03-01,2018-06-16
022210,99999,KORSVATTNET,SW,NA,NA,63.833,13.5,717,1997-12-01,2018-06-16
022220,99999,GADDEDE,SW,NA,NA,64.5,14.167,330,1977-07-01,2008-02-18
022230,99999,STEMSJON (AUT),SW,NA,NA,63.967,13.717,680,1973-01-01,1977-06-30
022240,99999,FOLLINGE-VAGSKALET,SW,NA,NA,63.767,14.433,475,2002-06-09,2002-06-09
022260,99999,OSTERSUND,SW,NA,ESNZ,63.2,14.5,376,1977-07-01,2018-06-16
022271,99999,KALIX,SW,NA,NA,65.85,23.133,7,2007-03-07,2007-03-07
022280,99999,EDEVIK,SW,NA,NA,64.05,12.95,453,1973-01-01,1977-06-30
022290,99999,OSTERSUND-SOL,SW,NA,NA,63.2,14.483,374,1997-09-01,2005-07-29
022300,99999,GUBBHOGEN,SW,NA,NA,64.217,15.55,310,1973-01-01,2018-06-16
022310,99999,FOLLINGE,SW,NA,NA,63.683,14.6,362,2001-07-01,2018-06-16
022320,99999,NORRAKER,SW,NA,NA,64.433,15.633,346,1977-07-01,2004-09-03
022330,99999,SAXNAS,SW,NA,NA,64.967,15.383,545,2001-07-01,2016-04-21
022340,99999,STROMSUND,SW,NA,NA,63.867,15.583,373,1979-01-05,1995-11-30
022360,99999,HALLHAXASEN,SW,NA,NA,63.767,15.333,376,1977-07-01,2018-06-16
022420,99999,HOTING,SW,NA,NA,64.083,16.233,241,1973-01-01,2018-06-16
022430,99999,JUNSELE,SW,NA,NA,63.683,16.95,214,1973-01-01,2018-06-16
022440,99999,JUNSELE,SW,NA,NA,63.683,16.95,217,1996-02-01,2008-02-18
022450,99999,VILHELMINA,SW,NA,NA,64.583,16.85,349,1996-08-01,2018-06-16
022455,99999,LYCKSELE,SW,NA,ESNL,64.548,18.716,214.9,1998-04-08,2018-06-16
022470,99999,KRANGEDE,SW,NA,NA,63.15,16.167,184,1973-01-01,2018-06-16
022480,99999,KRANGEDE,SW,NA,NA,63.167,16.167,223,1977-07-04,2005-02-18
022510,99999,STORSJO KAPELL,SW,NA,NA,62.8,13.067,575,1973-01-01,1977-06-30
022520,99999,IDVATTNET,SW,NA,NA,64.45,17.083,353,1983-02-01,2007-03-07
022540,99999,ASELE,SW,NA,NA,64.167,17.317,308,1977-07-01,2018-06-16
022550,99999,FRANSTA,SW,NA,NA,62.5,16.183,75,1973-01-01,1977-06-30
022560,99999,RISTRASK,SW,NA,NA,64.733,17.4,575,2001-07-01,2016-04-21
022570,99999,FLOTNINGEN,SW,NA,NA,61.85,12.267,670,1973-01-01,1977-06-30
022580,99999,VINDEL-BJORKHEDEN,SW,NA,NA,65.817,16.717,352,2001-11-04,2004-12-16
022590,99999,KRAMFORS SOLLEFTEA,SW,NA,ESNK,63.049,17.769,10.4,1977-07-01,2018-06-07
022600,99999,VASTMARKUM,SW,NA,NA,63.133,18.25,143,1973-01-01,2018-06-16
022610,99999,LYCKSELE,SW,NA,NA,64.55,18.717,211,1973-01-01,2018-05-15
022620,99999,VUOGGATJALME,SW,NA,NA,66.567,16.35,500,1973-01-01,2004-03-06
022630,99999,FREDRIKA,SW,NA,NA,64.083,18.367,327,2001-07-01,2018-06-16
022640,99999,FREDRIKA,SW,NA,NA,64.083,18.417,300,1973-01-01,2002-10-28
022650,99999,HEMLING,SW,NA,NA,63.65,18.55,183,2001-07-01,2018-06-16
022660,99999,VILHELMINA (AUTO),SW,NA,NA,64.583,16.85,349,2002-06-08,2002-06-08
022670,99999,ORNSKOLDSVIK,SW,NA,ESNO,63.408,18.99,107.9,1979-08-02,2018-06-16
022690,99999,SKAGSUDDE,SW,NA,NA,63.183,19.017,11,1996-08-01,2018-06-16
022700,99999,NORSJO,SW,NA,NA,64.917,19.467,301,2001-06-14,2003-09-14
022710,99999,NORSJO,SW,NA,NA,64.933,19.383,310,2001-07-01,2018-06-16
022740,99999,VINDELN,SW,NA,NA,64.217,19.717,206,1996-05-01,2000-05-09
022760,99999,NORDMALING,SW,NA,NA,63.567,19.5,5,1977-07-01,1987-04-23
022780,99999,KRANGEDE (AUTO),SW,NA,NA,63.15,16.167,184,1977-07-01,2004-10-15
022790,99999,SKILLINGMARK,SW,NA,NA,59.867,11.967,130,1973-01-01,1977-06-30
022800,99999,BLOMSKOG,SW,NA,NA,59.283,12.05,110,1973-01-01,1977-06-30
022810,99999,AMAL,SW,NA,NA,59.05,12.7,60,1973-01-01,1977-06-30
022820,99999,PETISTRASK,SW,NA,NA,64.567,19.7,258,2001-07-01,2018-06-16
022830,99999,UMEA-SOL,SW,NA,NA,63.817,20.233,22,1984-07-12,1984-07-12
022840,99999,JARNASKLUBB,SW,NA,NA,63.433,19.683,7,1973-01-01,2018-06-16
022860,99999,UMEA,SW,NA,ESNU,63.792,20.283,7.3,1977-07-01,2018-06-16
022861,99999,SODERHAMN,SW,NA,ESCL,61.267,17.1,36,2004-07-06,2012-01-03
022870,99999,HOLMON,SW,NA,NA,63.8,20.867,8,2005-07-24,2018-06-16
022880,99999,HOLMOGADD,SW,NA,NA,63.6,20.75,6,1935-01-01,2008-01-11
022890,99999,SYDOSTBROTTEN (LH),SW,NA,NA,63.333,20.183,25,1973-01-01,2001-09-20
022900,99999,FURUOGRUND        &,SW,NA,NA,64.917,21.233,10,1975-02-10,2003-01-14
022920,99999,HOKMARKSBERGET,SW,NA,NA,64.433,21.283,105,2001-07-01,2016-04-21
022930,99999,SKELLEFTEA,SW,NA,ESNS,64.625,21.077,47.9,1979-08-02,2018-06-16
022960,99999,BJUROKLUBB (LGT-H),SW,NA,NA,64.483,21.583,36,1935-01-01,2003-12-22
022970,99999,BJUROKLUBB,SW,NA,NA,64.483,21.583,43,2001-06-01,2018-06-12
022980,99999,SVARTEBORG,SW,NA,NA,58.567,11.55,70,1973-01-01,1977-06-30
023000,99999,FJALLNAS,SW,NA,NA,62.583,12.217,780,2002-05-23,2006-01-02
023020,99999,STORBO,SW,NA,NA,61.833,12.283,665,2001-07-01,2016-04-21
023030,99999,FLATRUET,SW,NA,NA,62.733,12.733,995,2001-07-01,2016-04-21
023040,99999,FLOTNINGEN,SW,NA,NA,61.85,12.267,670,1977-07-01,2004-01-23
023050,99999,NASHUVUD,SW,NA,NA,58.9,13.25,50,1973-01-01,1977-06-30
023060,99999,RORBACKSNAS,SW,NA,NA,61.133,12.817,465,1977-07-01,2017-12-08
023070,99999,IDRE FJALL,SW,NA,NA,61.883,12.85,869,1973-01-01,2018-06-16
023080,99999,TANNAS,SW,NA,NA,62.45,12.667,724,1996-08-01,2018-06-16
023100,99999,STORSJO KAPELL,SW,NA,NA,62.8,13.067,583,1977-07-01,2005-01-23
023110,99999,HOGFJALLSHOTELLET,SW,NA,NA,61.15,13.117,744,2001-07-01,2016-04-21
023120,99999,MALEXANDER,SW,NA,NA,58.067,15.217,153,1973-01-01,1977-06-30
023130,99999,VISINGSO,SW,NA,ESGI,58.1,14.4,110,1973-12-09,1973-12-09
023140,99999,LOFSDALEN,SW,NA,NA,62.1,13.25,610,2001-07-29,2005-05-23
023141,99999,TYLLINGE,SW,NA,NA,58.017,16.067,100,2016-08-01,2018-06-16
023160,99999,SARNA,SW,NA,NA,61.7,13.183,425,1935-01-01,2005-05-23
023170,99999,DRAVAGEN,SW,NA,NA,62.1,13.617,566,2001-07-01,2018-06-16
023180,99999,TANDADALEN,SW,NA,NA,61.167,13.017,830,1973-01-01,2016-02-04
023190,99999,BORTNAN,SW,NA,NA,62.75,13.85,467,2001-07-01,2018-06-16
023191,99999,AMBJORNARP,SW,NA,NA,57.417,13.283,220,2016-07-26,2018-06-14
023201,99999,TINGHALLA,SW,NA,NA,57.967,13.85,278,2016-07-26,2018-06-16
023210,99999,ALVDALEN,SW,NA,NA,61.25,14.033,253,1973-01-01,2018-06-16
023230,99999,KLOVSJO,SW,NA,NA,62.533,14.2,550,2001-11-24,2005-02-23
023240,99999,SVEG,SW,NA,NA,62.017,14.183,363,1937-01-01,2012-10-31
023250,99999,KLOVSJOHOJDEN,SW,NA,NA,62.5,14.15,803,1973-01-01,2018-06-16
023260,99999,FREDRIKA,SW,NA,NA,64.083,18.417,300,1977-07-01,2004-12-21
023270,99999,SVEG A,SW,NA,NA,62.05,14.4,362,2009-09-29,2018-06-16
023280,99999,KRAMFORS (SWE-AFB),SW,NA,NA,63.05,17.767,19,2002-12-17,2004-11-02
023290,99999,HAMRA,SW,NA,NA,61.667,15,455,1973-01-01,2018-06-16
023300,99999,HUNGE,SW,NA,NA,62.75,15.1,342,1974-06-27,2005-10-08
023310,99999,HUNGE,SW,NA,NA,62.75,15.083,343,2001-07-01,2018-06-16
023321,99999,FAGERHULT,SW,NA,NA,57.15,15.667,115,2016-07-26,2018-04-25
023330,99999,LJUNGBY,SW,NA,NA,56.833,13.917,155,1973-01-01,1977-06-30
023340,99999,FINNEBY,SW,NA,NA,62.033,15.467,261,1973-01-01,1977-06-30
023360,99999,EDSBYN,SW,NA,NA,61.383,15.833,163,1977-07-01,2004-02-09
023370,99999,NORRHOG,SW,NA,NA,62.267,15.667,320,1973-01-01,2016-04-21
023380,99999,EDSBYN,SW,NA,NA,61.367,15.717,185,1996-08-01,2018-06-16
023420,99999,FRANSTA,SW,NA,NA,62.517,16.183,105,1977-07-01,1996-01-03
023430,99999,TORPSHAMMAR,SW,NA,NA,62.5,16.283,100,1973-01-01,2018-06-16
023451,99999,SJOBO,SW,NA,NA,55.633,13.7,32,2016-07-26,2018-06-14
023460,99999,DELSBO,SW,NA,NA,61.783,16.55,90,1977-09-28,2003-08-18
023470,99999,DELSBO,SW,NA,NA,61.833,16.55,72,1935-01-01,2018-06-16
023490,99999,SILLRE,SW,NA,NA,62.767,16.733,205,2001-07-01,2016-04-21
023540,99999,RASTA,SW,NA,NA,62.433,17.35,80,2001-07-01,2016-04-21
023550,99999,KUGGOREN,SW,NA,NA,61.7,17.533,10,1996-08-01,2018-06-16
023600,99999,SKELLEFTEA AIRPORT,SW,NA,ESNS,64.633,21.083,46,1974-01-10,1974-01-10
023610,99999,HARNOSAND,SW,NA,NA,62.633,17.95,8,1929-08-01,2004-09-10
023631,99999,VASTERA,SW,NA,NA,62.517,17.683,35,2007-03-06,2007-03-07
023640,99999,ORNSKOLDSVIK ARPT,SW,NA,ESNO,63.4,18.967,107,1973-10-14,1974-02-13
023650,99999,SUNDSVALL-HARNOSAND,SW,NA,NA,62.517,17.45,8,1976-08-01,2005-04-17
023660,99999,SUNDSVALL HARNOSAND,SW,NA,ESNN,62.528,17.444,4.9,1977-07-01,2018-06-16
023670,99999,ALNON ISLAND,SW,NA,NA,62.367,17.533,33,1984-05-29,2005-12-31
023680,99999,BRAMON,SW,NA,NA,62.217,17.75,18,1987-05-21,2018-06-16
023700,99999,GAVLE/SANDVIKEN AFB,SW,NA,ESSK,60.6,16.95,68,1973-08-28,1974-01-23
023710,99999,BORLANGE (SWE-AFB),SW,NA,ESSD,60.433,15.5,153,1973-08-10,1973-12-13
023750,99999,ESKILSTUNA(SWE-AFB&,SW,NA,ESSU,59.35,16.717,40,1980-03-02,2003-03-13
023760,99999,SODERHAMN (SWE-AFB),SW,NA,NA,61.267,17.1,36,1977-07-01,1998-01-05
023780,99999,SODERHAMN FLYGPLATS,SW,NA,NA,61.45,17.167,27,2004-07-06,2012-01-03
023810,99999,NORRKOPING/KUNGSANG,SW,NA,ESSP,58.583,16.25,5,1973-07-28,1977-06-30
023820,99999,LUNGO,SW,NA,NA,62.65,18.1,18,1973-08-24,2018-06-16
023980,99999,KRISTIANSTAD/EVEROD,SW,NA,ESMK,55.917,14.083,23,1973-07-08,1973-11-06
024000,99999,OSTMARK,SW,NA,NA,60.35,12.65,310,1977-07-01,2005-09-24
024020,99999,SKILLINGMARK,SW,NA,NA,59.867,11.967,130,1977-10-14,2004-02-24
024030,99999,NAVEN,SW,NA,NA,58.7,13.117,53,2001-07-01,2018-06-16
024040,99999,ARVIKA,SW,NA,ESKV,59.667,12.583,75,1977-07-01,2004-02-24
024060,99999,BLOMSKOG,SW,NA,NA,59.283,12.05,110,1977-07-01,2004-04-24
024070,99999,MALUNG A,SW,NA,NA,60.683,13.7,306,2001-11-24,2018-06-16
024080,99999,BLOMSKOG,SW,NA,NA,59.217,12.083,171,1996-08-01,2018-06-16
024090,99999,AMAL,SW,NA,NA,59.05,12.7,60,1977-07-01,2004-04-24
024100,99999,MALUNG,SW,NA,EVSM,60.683,13.7,308,1977-07-01,2011-08-18
024110,99999,ARVIKA,SW,NA,ESKV,59.676,12.639,72.2,2001-07-01,2018-06-16
024120,99999,GUSTAVSFORS,SW,NA,NA,60.15,13.8,190,1977-07-01,2005-07-26
024130,99999,BRATTMON,SW,NA,NA,60.75,12.767,205,2001-07-01,2016-04-21
024150,99999,KARLSTAD SOL,SW,NA,NA,59.367,13.467,46,1985-07-31,2011-10-25
024161,99999,MOLKOM,SW,NA,NA,59.617,13.733,93,2002-09-24,2002-09-24
024170,99999,PALGRUNDEN,SW,NA,NA,58.75,13.15,50,1978-10-14,2018-06-16
024180,99999,KARLSTAD,SW,NA,ESOK,59.445,13.337,107.3,1935-01-01,2018-06-16
024190,99999,KARLSTAD SOL,SW,NA,NA,59.367,13.467,46,1984-05-20,1984-05-20
024200,99999,MOCKFJARD,SW,NA,NA,60.517,14.95,193,2001-11-17,2004-12-11
024220,99999,ASPHYTTAN,SW,NA,NA,59.617,14.183,130,2003-12-24,2005-01-24
024230,99999,SUNNE,SW,NA,NA,59.867,13.117,109,2001-07-01,2018-06-16
024240,99999,STALLDALEN,SW,NA,NA,59.95,14.95,210,1996-05-01,2003-03-19
024260,99999,GUSTAVSFORS,SW,NA,NA,60.15,13.8,188,1935-01-01,2018-06-16
024280,99999,ATORP,SW,NA,NA,59.1,14.367,105,1977-07-01,2005-09-27
024283,99999,OREBRO,SW,NA,ESOE,59.224,15.038,57.3,1991-08-27,2018-06-16
024284,99999,MORA,SW,NA,ESKM,60.958,14.511,193.2,1991-08-27,2018-06-16
024285,99999,TORSBY,SW,NA,ESST,60.158,12.991,119.8,2007-02-26,2018-06-16
024290,99999,DAGLOSEN,SW,NA,NA,59.667,14.183,133,2001-07-01,2018-06-16
024300,99999,BACKA,SW,NA,NA,60.917,15.117,227,2001-07-11,2002-07-21
024310,99999,KLOTEN,SW,NA,NA,59.867,15.25,289,2009-08-11,2018-06-16
024320,99999,OREBRO,SW,NA,NA,59.233,15.05,53,1996-08-01,2018-06-16
024330,99999,FALUN,SW,NA,NA,60.617,15.667,157,1935-01-01,2002-07-04
024350,99999,BORLANGE,SW,NA,ESSD,60.422,15.515,153.3,1979-08-02,2018-06-16
024360,99999,OREBRO/EKEBY (DEAD),SW,NA,NA,59.267,15.333,33,1977-07-01,1982-08-31
024361,99999,OREBRO/EKEBY(DEAD),SW,NA,NA,59.233,15.05,57,1935-01-01,1938-12-31
024373,99999,ARBOGA,SW,NA,ESQO,59.387,15.924,10.1,2007-02-26,2007-02-27
024390,99999,FELLINGSBRO-FINNAKE,SW,NA,NA,59.533,15.583,52,2002-03-15,2002-11-01
024400,99999,AMOT,SW,NA,NA,60.967,16.433,162,2001-06-01,2018-06-16
024410,99999,MORA,SW,NA,NA,60.967,14.5,197,2001-07-01,2018-06-16
024430,99999,ENKOPING,SW,NA,NA,59.65,17.117,26,1979-08-03,2018-06-16
024440,99999,FOLKARNA,SW,NA,NA,60.167,16.317,70,1977-07-01,1996-05-06
024460,99999,VASTERAS,SW,NA,ESOW,59.589,16.634,6.4,1977-07-01,2018-06-16
024480,99999,DUNKER,SW,NA,NA,59.2,16.917,33,2001-06-20,2004-12-26
024490,99999,ESKILSTUNA A,SW,NA,NA,59.383,16.45,15,2001-07-01,2018-06-16
024500,99999,EGGEGRUND,SW,NA,NA,60.733,17.567,4,1997-09-01,2018-06-16
024510,99999,VASTRA BANKEN (AUT),SW,NA,NA,60.883,17.917,22,1977-12-11,2002-12-13
024520,99999,KILSBERGEN-SUTTARBODA,SW,NA,NA,59.3,14.9,219,2001-07-01,2018-06-16
024530,99999,GAVLE/SANDVIKEN AIR FORCE BAS,SW,NA,ESSK,60.717,17.167,16,1996-05-01,2018-06-16
024540,99999,UTVALNAS,SW,NA,NA,60.75,17.35,4,1978-01-02,1978-06-15
024560,99999,FILM,SW,NA,NA,60.233,17.9,35,1996-02-01,2018-06-16
024580,99999,UPPSALA,SW,NA,ESCM,59.897,17.589,20.7,1935-01-01,2018-06-16
024600,99999,ARLANDA,SW,NA,ESSA,59.652,17.919,41.8,1977-06-30,2018-06-16
024620,99999,UPPSALA UNIVERSITY,SW,NA,NA,59.867,17.633,13,2006-11-08,2018-06-16
024640,99999,BROMMA,SW,NA,ESSB,59.354,17.942,14.3,1931-01-01,2018-06-16
024650,99999,STOCKHOLM/BROMMA UA,SW,NA,NA,59.35,17.967,22,1980-10-04,2002-12-18
024680,99999,STORA SPANSBERGET,SW,NA,NA,60.383,15.133,493,2001-07-01,2018-06-16
024690,99999,TULLINGE,SW,NA,ESCN,59.183,17.917,54,2001-06-01,2018-06-16
024700,99999,ORSKAR (LGT-H),SW,NA,NA,60.533,18.383,5,2001-08-25,2003-06-01
024710,99999,GRUNDKALLEN,SW,NA,NA,60.5,18.867,23,1977-07-01,2003-10-12
024720,99999,SKEPPMORA,SW,NA,NA,60.117,15.117,240,2001-07-01,2016-04-21
024730,99999,UNDERSTEN (LGT-H),SW,NA,NA,60.283,18.917,40,1989-01-26,1989-03-01
024740,99999,SINGO ISLAND,SW,NA,NA,60.167,18.75,14,1977-07-01,2004-04-30
024760,99999,FLODA,SW,NA,NA,59.05,16.4,33,1996-08-01,2018-06-16
024800,99999,NORRTALJE/VASBY,SW,NA,NA,59.85,18.733,10,2001-08-04,2005-05-22
024810,99999,SALA,SW,NA,NA,59.917,16.683,58,2001-07-01,2018-06-16
024820,99999,KERSTINBO,SW,NA,NA,60.267,16.983,57,2001-07-01,2018-06-16
024830,99999,STOCKHOLM-SOL,SW,NA,NA,59.35,18.067,30,1997-09-01,2014-07-17
024840,99999,STOCKHOLM/OBSERVATORIET,SW,NA,NA,59.35,18.067,44,2001-06-01,2018-06-16
024850,99999,STOCKHOLM,SW,NA,NA,59.35,18.067,52,1984-05-21,2018-06-16
024853,99999,SKAVSTA,SW,NA,ESKN,58.789,16.912,42.7,1991-08-27,2018-06-16
024860,99999,ADELSO,SW,NA,NA,59.367,17.517,6,2001-07-01,2018-06-16
024870,99999,SKARPO A,SW,NA,NA,59.35,18.733,22,1997-09-01,2018-06-16
024880,99999,ORSKAR,SW,NA,NA,60.533,18.383,9,1996-08-01,2018-06-16
024890,99999,BERGA,SW,NA,NA,59.067,18.117,3,2001-06-01,2018-06-16
024900,99999,SVANBERGA,SW,NA,NA,59.833,18.633,16,2001-07-01,2018-06-16
024930,99999,SODERARM,SW,NA,NA,59.75,19.417,15,2001-07-01,2018-06-16
024940,99999,BJUROKLUBB (LGT-H),SW,NA,NA,64.483,21.583,36,2001-09-30,2006-03-03
024950,99999,SVENSKA BJORN (AUT),SW,NA,NA,59.55,20.017,24,1978-03-03,2005-01-11
024960,99999,SVENSKA HOGARNA,SW,NA,NA,59.45,19.5,12,1977-07-01,2018-06-16
024980,99999,SVENSKA HOGARNA A,SW,NA,NA,59.45,19.5,12,2010-06-02,2018-06-16
024990,99999,ALMAGRUNDET,SW,NA,NA,59.15,19.133,25,1997-09-01,2010-03-11
025000,99999,NORDKOSTER,SW,NA,NA,58.9,11,35,1996-02-01,2018-06-16
025010,99999,VADEROARNA,SW,NA,NA,58.583,11.067,24,1977-08-04,2018-06-16
025020,99999,DALS-ED,SW,NA,NA,58.9,12.033,152,2002-02-05,2004-04-25
025040,99999,SVARTEBORG,SW,NA,NA,58.567,11.55,70,1977-07-01,2004-04-25
025050,99999,MASESKAR,SW,NA,NA,58.1,11.333,16,1996-08-01,2018-06-16
025070,99999,HUD,SW,NA,NA,58.667,11.417,80,2001-07-01,2016-04-21
025080,99999,MASESKAR (LGT-H),SW,NA,NA,58.1,11.35,14,1973-01-01,2005-05-25
025100,99999,LJUNGSKILE,SW,NA,NA,58.217,11.933,70,1935-01-01,2005-09-25
025103,99999,TROLLHATTAN VANERSBORG,SW,NA,ESGT,58.318,12.345,41.8,1991-08-27,2018-06-16
025105,99999,LIDKOPING,SW,NA,ESGL,58.466,13.174,61,2007-10-16,2012-08-30
025110,99999,FLADEN,SW,NA,NA,57.217,11.833,10,2004-11-02,2005-10-26
025120,99999,SAVE,SW,NA,ESGP,57.775,11.87,18,1977-07-01,2017-01-02
025130,99999,GOTEBORG,SW,NA,NA,57.717,12,2,1996-05-01,2018-06-16
025140,99999,ARVIDSJAUR,SW,NA,ESNX,65.59,19.282,379.5,1977-07-01,2018-06-16
025150,99999,TORPABRON,SW,NA,NA,58.2,12.15,20,2001-06-01,2016-04-21
025160,99999,VINGA,SW,NA,NA,57.633,11.617,19,1996-09-01,2018-06-16
025170,99999,TRUBADUREN,SW,NA,NA,57.6,11.633,26,1978-03-23,2007-06-11
025180,99999,NIDINGEN,SW,NA,NA,57.3,11.9,2,1973-01-01,2018-06-16
025190,99999,RINGHALS (AUT),SW,NA,NA,57.267,12.117,12,2002-03-25,2004-05-25
025200,99999,SATENAS,SW,NA,ESIB,58.426,12.714,55.2,1977-07-01,2018-06-16
025210,99999,BERGARUD,SW,NA,NA,58.6,12.417,55,1977-07-01,2016-04-21
025230,99999,ABRAUR,SW,NA,NA,65.983,18.933,374,1973-01-01,2005-03-25
025240,99999,MOLLA,SW,NA,NA,57.933,13.067,190,1973-01-01,2006-03-31
025260,99999,LANDVETTER,SW,NA,ESGG,57.663,12.28,154.2,1977-10-03,2018-06-16
025270,99999,GOTEBORG/LANDVETTER,SW,NA,NA,57.667,12.291,164,1999-12-19,1999-12-19
025280,99999,TANDADALEN,SW,NA,NA,61.167,13.017,830,1977-07-08,2003-09-14
025290,99999,VARBERG           &,SW,NA,NA,57.117,12.267,0,1984-07-07,1984-10-24
025300,99999,NASHUVUD,SW,NA,NA,58.9,13.25,50,1977-07-01,1996-01-27
025330,99999,SKARA,SW,NA,NA,58.383,13.25,120,2001-07-02,2003-09-11
025331,99999,SKARA,SW,NA,NA,58.383,13.25,120,1935-01-01,1938-12-31
025350,99999,SKOVDE,SW,NA,ESGR,58.456,13.973,98.8,1991-08-27,2018-06-16
025360,99999,RANGEDALA,SW,NA,NA,57.783,13.167,299,1977-07-01,2018-06-16
025361,99999,DALSJOFORS,SW,NA,NA,57.717,13.083,259,2016-07-26,2018-06-16
025380,99999,HESTRA,SW,NA,NA,57.4,13.533,285,2003-12-21,2018-06-15
025390,99999,ULLARED,SW,NA,NA,57.117,12.783,122,2001-07-01,2018-06-16
025400,99999,KROPPEFJALL-GRANAN,SW,NA,NA,58.6,12.2,174,2001-07-01,2018-06-16
025410,99999,SNAVLUNDA,SW,NA,NA,58.967,14.9,144,1977-07-01,2003-05-02
025420,99999,HALLUM,SW,NA,NA,58.317,13.033,71,2001-07-01,2018-06-16
025430,99999,FAGRE,SW,NA,NA,58.65,14.133,97,2003-06-21,2003-06-21
025440,99999,KARLSBORG,SW,NA,NA,58.517,14.517,94,1977-07-01,2018-06-16
025450,99999,AXSTAL,SW,NA,NA,58.567,14.567,93,2007-11-04,2018-06-16
025460,99999,GARDSJO,SW,NA,NA,58.883,14.383,212,2001-07-01,2018-06-16
025480,99999,VISINGSO,SW,NA,NA,58.1,14.417,95,2001-06-01,2018-06-16
025490,99999,TOMTABACKEN,SW,NA,NA,57.5,14.467,356,2001-07-01,2018-06-16
025500,99999,JONKOPING,SW,NA,ESGJ,57.758,14.069,225.9,1977-06-30,2018-06-16
025511,99999,JONKOPING,SW,NA,NA,57.783,14.183,99,1931-01-01,1938-12-31
025520,99999,MALEXANDER,SW,NA,NA,58.067,15.233,197,2001-07-01,2018-06-16
025530,99999,KYMBO,SW,NA,NA,58.083,13.783,220,2001-07-01,2016-04-21
025531,99999,HABO,SW,NA,NA,57.917,14.083,176,2007-02-26,2007-02-26
025540,99999,KETTSTAKA,SW,NA,NA,58.717,15.033,225,2001-07-01,2018-06-16
025550,99999,NASSJO,SW,NA,NA,57.65,14.7,305,1977-07-01,2003-01-02
025560,99999,HAGSHULT,SW,NA,ESMV,57.292,14.137,169.5,1977-07-01,2018-06-16
025570,99999,HORN,SW,NA,NA,57.883,15.867,91,2001-07-01,2018-06-16
025580,99999,KOLMARDEN-STROMSFORS,SW,NA,NA,58.683,16.317,155,2001-07-01,2018-06-16
025590,99999,GLADHAMMAR,SW,NA,NA,57.7,16.467,31,2001-07-01,2018-06-16
025600,99999,ZINKGRUVAN,SW,NA,NA,58.8,15.117,215,2001-06-20,2006-11-20
025610,99999,KVARN,SW,NA,NA,58.65,15.433,10,2010-05-03,2018-06-16
025620,99999,MALMEN,SW,NA,ESCF,58.402,15.526,93.9,1977-07-01,2018-06-16
025625,99999,SAAB,SW,NA,ESSL,58.406,15.681,52.4,1995-10-12,2018-06-16
025630,99999,HARSTENA,SW,NA,NA,58.25,17.017,18,2001-07-01,2018-06-16
025635,99999,ANGELHOLM,SW,NA,ESDB,56.283,12.833,47,2004-08-10,2018-06-16
025640,99999,MALEXANDER,SW,NA,NA,58.067,15.233,200,1977-07-01,2005-06-21
025650,99999,HULTSFRED,SW,NA,ESSF,57.526,15.823,111.6,1979-08-06,2018-06-16
025660,99999,MALILLA,SW,NA,NA,57.4,15.817,98,1973-01-01,2015-01-28
025670,99999,LANDSORT,SW,NA,NA,58.75,17.867,20,1996-08-01,2018-06-16
025680,99999,ALLGUNNEN,SW,NA,NA,57.067,15.967,115,1977-07-07,2001-06-08
025700,99999,NORRKOPING/BRAVALLA,SW,NA,NA,58.617,16.117,33,1977-07-01,2015-01-29
025710,99999,KUNGSANGEN,SW,NA,ESSP,58.586,16.251,9.8,1977-07-01,2018-06-16
025720,99999,NYKOPING/SKAVST AFB,SW,NA,NA,58.783,16.917,42,1977-07-01,1980-10-03
025740,99999,NORRKOPING,SW,NA,NA,58.583,16.15,41.6,1997-09-01,2018-06-16
025750,99999,OLANDS NORRA UDDE,SW,NA,NA,57.367,17.1,4,1996-08-01,2018-06-16
025760,99999,GLADHAMMAR,SW,NA,NA,57.717,16.467,35,1977-07-01,2002-11-02
025800,99999,STABBO (AUT),SW,NA,NA,58.967,18.45,10,1987-03-14,2016-06-17
025810,99999,UTO ISLAND,SW,NA,NA,58.95,18.267,76,2002-02-22,2003-08-15
025820,99999,LANDSORT (LGT-H),SW,NA,NA,58.75,17.867,32,1935-01-01,2006-10-25
025830,99999,GUSTAF DALEN,SW,NA,NA,58.6,17.467,3,1977-07-08,2008-11-26
025840,99999,GOTSKA SANDON,SW,NA,NA,58.4,19.2,12,1935-01-01,2006-12-31
025860,99999,HARSTENA,SW,NA,NA,58.25,17.017,7,1977-07-01,2005-02-15
025870,99999,FAROSUND-AR,SW,NA,NA,57.917,18.95,13,2001-07-01,2018-06-16
025880,99999,FARO ISLAND,SW,NA,NA,57.9,19.167,8,1977-07-01,2002-05-13
025890,99999,GOTSKA SANDON,SW,NA,NA,58.4,19.2,17,2001-07-01,2018-06-16
025900,99999,VISBY,SW,NA,ESSV,57.663,18.346,50,1931-01-01,2018-06-16
025910,99999,VISBY AEROLOGISKA STATION,SW,NA,NA,57.65,18.35,47,2002-03-15,2018-01-15
025920,99999,OLANDS NORRA UDDE,SW,NA,NA,57.367,17.1,4,1935-01-01,2002-05-16
025931,99999,VASTERGARN,SW,NA,NA,57.433,18.15,2,2016-07-26,2018-06-16
025940,99999,STORA KARLSO(LGT-H),SW,NA,NA,57.3,17.967,40,2001-06-29,2004-07-12
025950,99999,ROMA,SW,NA,NA,57.55,18.433,35,2001-06-01,2016-04-21
025960,99999,HERRVIK,SW,NA,NA,57.417,18.917,5,2002-05-16,2005-03-25
025970,99999,KAJAANI,FI,NA,NA,64.283,27.683,135.9,2002-07-07,2003-08-20
025980,99999,OSTERGARNSHOLM,SW,NA,NA,57.433,18.983,5,2001-07-01,2018-06-16
025990,99999,NASUDDEN,SW,NA,NA,57.067,18.217,5,1997-09-01,1997-09-02
026000,99999,GLOMMEN,SW,NA,NA,56.933,12.367,7,2001-06-26,2005-07-27
026020,99999,HALLANDSASEN,SW,NA,NA,56.4,12.95,140,2001-07-01,2016-04-21
026030,99999,BROEN,SW,NA,NA,56.867,12.667,47,2001-07-01,2018-01-31
026040,99999,HALMSTAD,SW,NA,ESMT,56.691,12.82,30.8,1935-01-01,2018-06-16
026050,99999,HALLANDS VADERO,SW,NA,NA,56.45,12.55,10,1996-08-01,2018-06-16
026060,99999,KULLEN (LGT-H),SW,NA,NA,56.3,12.45,72,1977-07-01,2005-09-01
026070,99999,ANGELHOLM/BARKAKRA,SW,NA,ESDB,56.283,12.083,18,1977-07-01,2015-08-18
026090,99999,RYNGE,SW,NA,NA,55.467,13.667,50,2001-07-01,2016-04-21
026100,99999,ORJA (AUT),SW,NA,NA,55.867,12.867,11,1985-10-09,2005-11-08
026110,99999,HELSINGBORG,SW,NA,NA,56.033,12.767,44,1984-06-18,2018-06-16
026140,99999,OSKARSGRUNDET,SW,NA,NA,55.6,12.85,10,1984-05-15,2005-06-02
026150,99999,FALSTERBO A,SW,NA,NA,55.383,12.817,5,2009-07-13,2018-06-16
026151,99999,KLAGSHAMN (PORT),SW,NA,NA,55.517,12.917,2,2002-08-26,2002-08-26
026160,99999,FALSTERBO,SW,NA,NA,55.383,12.817,5,1977-07-01,2018-06-16
026170,99999,MAGLARP (AUT),SW,NA,NA,55.383,13.067,8,2002-03-26,2004-06-26
026180,99999,TORUP,SW,NA,NA,56.95,13.067,130,2008-02-29,2018-06-16
026200,99999,TORUP,SW,NA,NA,56.967,13.067,87,1996-02-01,2008-02-18
026220,99999,LJUNGBY,SW,NA,NA,56.85,13.883,148,1977-07-01,2018-06-16
026230,99999,HORBY,SW,NA,NA,55.867,13.667,114,2001-08-27,2018-06-16
026240,99999,MARKARYD,SW,NA,NA,56.467,13.65,118,1977-07-01,1987-08-31
026241,99999,MARKARYD,SW,NA,NA,56.433,13.6,118,2016-07-26,2018-06-16
026250,99999,SKILLINGE,SW,NA,NA,55.483,14.317,5,1996-08-01,2018-06-16
026260,99999,OSBY,SW,NA,NA,56.367,13.95,85,1977-07-01,2018-06-15
026270,99999,LUND-SOL,SW,NA,NA,55.717,13.217,86,1997-09-01,1997-09-02
026280,99999,HANO,SW,NA,NA,56.017,14.85,60,1996-08-01,2018-06-16
026290,99999,HASTVEDA,SW,NA,NA,56.283,13.933,10,2010-05-03,2018-06-16
026291,99999,LINDEROD,SW,NA,NA,55.967,13.85,130,2016-07-28,2018-05-02
026300,99999,LJUNGBYHED(SWE-AFB),SW,NA,ESDA,56.083,13.233,52,1977-07-01,2003-01-31
026320,99999,UTKLIPPAN,SW,NA,NA,55.95,15.7,3,2001-07-01,2018-06-16
026330,99999,LUND SOL,SW,NA,NA,55.717,13.217,86,2016-07-26,2018-06-16
026350,99999,MALMO,SW,NA,NA,55.567,13.067,21,1935-04-13,2018-06-16
026360,99999,STURUP,SW,NA,ESMS,55.53,13.372,71.9,1977-06-30,2018-06-16
026380,99999,SMYGEHUK (LGT-H),SW,NA,NA,55.333,13.35,5,1977-07-01,2004-12-08
026390,99999,YSTAD             &,SW,NA,NA,55.433,13.833,34,1977-07-01,1983-09-15
026391,99999,YSTAD,SW,NA,NA,55.433,13.833,34,1935-01-01,1938-12-31
026400,99999,VAXJO/URASA(SAFB),SW,NA,NA,56.867,14.8,166,1935-01-01,2004-11-15
026410,99999,KRONOBERG,SW,NA,ESMX,56.929,14.728,185.9,1979-08-02,2018-06-16
026440,99999,OLANDS SODRA UDDE,SW,NA,NA,56.2,16.4,3,1996-08-01,2018-06-16
026460,99999,OLANDSBRON LAG,SW,NA,NA,56.667,16.467,10,1935-01-01,2016-04-21
026480,99999,VAXJO,SW,NA,NA,56.85,14.833,200,2001-06-01,2018-06-16
026500,99999,HANO ISLAND (LGT-H),SW,NA,NA,56.017,14.85,55,1977-07-01,2005-08-14
026510,99999,KRISTIANSTAD,SW,NA,ESMK,55.922,14.086,23.2,1979-08-02,2018-06-16
026520,99999,KRISTIANSTAD,SW,NA,NA,56.017,14.1,10,2010-11-17,2016-04-21
026531,99999,RINKABY,SW,NA,NA,55.983,14.3,12,2007-03-07,2018-06-16
026540,99999,STENSHUVUD        &,SW,NA,NA,55.667,14.267,112,1973-01-01,2003-08-03
026560,99999,SANDHAMMAREN(LGT-H),SW,NA,NA,55.383,14.2,5,2001-09-25,2002-08-13
026610,99999,KOSTA (ORREFORS),SW,NA,NA,56.833,15.467,232,2001-09-16,2018-06-16
026640,99999,RONNEBY,SW,NA,ESDF,56.267,15.265,58.2,1977-07-01,2018-06-16
026660,99999,UNGSKAR,SW,NA,NA,56.033,15.8,3,1977-07-01,2005-04-15
026670,99999,KARLSKRONA-SODERSTJERNA,SW,NA,NA,56.15,15.583,8,2010-05-03,2018-06-16
026700,99999,KALMAR,SW,NA,NA,56.683,16.3,4,1996-05-01,2018-06-16
026720,99999,KALMAR,SW,NA,ESMQ,56.686,16.288,5.2,1977-07-01,2018-06-16
026760,99999,OLANDS SODRA UDDE,SW,NA,NA,56.2,16.4,3,2001-08-11,2005-08-20
026790,99999,HOBURG A,SW,NA,NA,56.917,18.15,39,2009-06-10,2018-06-16
026800,99999,HOBURG,SW,NA,NA,56.917,18.15,39,1935-10-25,2012-08-31
026810,99999,VRETA KLOSTER,SW,NA,NA,58.483,15.517,52,2004-05-29,2007-06-24
026850,99999,OLANDS SODRA GRUND,SW,NA,NA,56.067,16.683,30,1977-11-26,2007-03-07
027010,99999,KILPISJARVI SAANA,FI,NA,NA,69.05,20.85,1009,2008-01-15,2018-06-16
027020,99999,INARI KAAMANEN,FI,NA,NA,69.133,27.267,156,2014-01-08,2018-06-16
027030,99999,ESPOO SEPANKYLA,FI,NA,NA,60.2,24.733,31.5,2008-01-15,2015-03-16
027040,99999,HATTULA LEPAA AWS,FI,NA,NA,61.117,24.317,87,2008-01-15,2018-06-16
027050,99999,PELKOSENNIEMI PYHATUNTURI,FI,NA,NA,67.017,27.217,487.5,2008-01-16,2018-06-16
027060,99999,LOHJA PORLA,FI,NA,NA,60.25,24.05,37,2008-01-15,2018-06-16
027080,99999,KARVIA ALKKIA,FI,NA,NA,62.183,22.8,161,2013-08-05,2018-06-16
027100,99999,VESANTO SONKARI,FI,NA,NA,62.917,26.417,120,2008-01-16,2018-06-16
027110,99999,VAASA KESKUSTA,FI,NA,NA,63.1,21.617,13,2008-01-15,2011-11-02
027130,99999,HAMEENLINNA LAMMI EVO,FI,NA,NA,61.217,25.133,134,2013-08-05,2018-06-16
027140,99999,VAALA PELSO,FI,NA,NA,64.5,26.44,114,2008-01-16,2018-06-16
027150,99999,HYRYNSALM KYTOMAKI,FI,NA,NA,64.833,28.233,320,2008-01-16,2009-07-06
027160,99999,RANUA KK,FI,NA,NA,65.933,26.517,154,2008-01-16,2008-07-31
027170,99999,KITTILA POKKA,FI,NA,NA,68.167,25.767,272,2008-01-15,2018-06-16
027180,99999,PUUMALA KK URHEILUKENTTA,FI,NA,NA,61.517,28.183,98,2013-08-05,2018-06-16
027190,99999,SODANKYLA KOKKA,FI,NA,NA,67.817,27.75,240,2008-01-16,2018-06-16
027200,99999,KITTILA,FI,NA,EFKT,67.701,24.847,196.3,2013-01-01,2018-06-16
027210,99999,KOKKOLA TANKAR,FI,NA,NA,63.95,22.85,6.3,2008-01-16,2018-06-16
027220,99999,INARI SAARISELKA,FI,NA,NA,68.417,27.417,302,2008-01-23,2018-06-16
027230,99999,KITTILA LEVITUNTURI,FI,NA,NA,67.783,24.85,200,2008-01-15,2016-02-22
027240,99999,LUMPARLAND LANGNAS HARBOUR,FI,NA,NA,60.117,20.3,11,2015-02-16,2018-06-16
027250,99999,HALSUA KANALA PUROLA,FI,NA,NA,63.45,24.45,153,2008-01-15,2018-06-16
027260,99999,ENONTEKIO NAKKALA,FI,NA,NA,68.6,23.583,374,2008-01-15,2018-06-16
027270,99999,ASIKKALA PULKKILANHARJU,FI,NA,NA,61.267,25.517,76,2008-01-15,2018-06-16
027280,99999,TAIPALSAARI KYLANIEMI,FI,NA,NA,61.3,28.183,88,2008-01-15,2011-09-15
027290,99999,JAMSA HIMOS,FI,NA,NA,61.883,25.333,205,2009-07-01,2011-08-04
027300,99999,SAVOLINNA RUUNAVUORI,FI,NA,NA,61.833,28.85,157,2009-07-01,2011-02-10
027310,99999,PUUMALA KK,FI,NA,NA,61.533,28.2,127,2009-08-01,2013-06-27
027320,99999,KUOPIO RITONIEMI,FI,NA,NA,62.8,27.9,87,2009-07-01,2018-06-16
027330,99999,LAPPEENRANTA KONNUNSUO,FI,NA,NA,61.033,28.567,46.4,2009-07-01,2018-06-16
027340,99999,PARIKKALA KOITSANLAHTI,FI,NA,NA,61.45,29.467,75,2009-07-01,2018-06-16
027350,99999,VIRRAT AIJANNEVA,FI,NA,NA,62.333,23.55,139.5,2009-07-01,2018-06-16
027360,99999,JUVA PARTALA,FI,NA,NA,61.9,27.883,111.5,2009-07-01,2018-06-16
027370,99999,TOHOLAMPI LAITALA,FI,NA,NA,63.817,24.167,84.5,2009-07-01,2018-06-16
027380,99999,PYHAJARVI OL OJAKYLA,FI,NA,NA,63.733,25.7,153.3,2009-07-01,2018-06-16
027390,99999,SOTKAMO KUOLANIEMI,FI,NA,NA,64.117,28.333,162.5,2009-07-01,2018-06-16
027410,99999,JOMALA JOMLABY,FI,NA,NA,60.183,19.983,11,2008-01-16,2018-06-16
027430,99999,KEMIONSAARI VANO,FI,NA,NA,59.867,22.2,8,2009-07-01,2018-06-16
027440,99999,TAMPERE SATAKUNNANKATU,FI,NA,NA,61.5,23.767,92,2013-08-05,2018-06-16
027450,99999,SALLA NARUSKA,FI,NA,NA,67.167,29.183,214.7,2009-07-01,2018-06-16
027460,99999,HANKO TULLINIEMI,FI,NA,NA,59.817,22.917,27.5,2009-07-01,2018-06-16
027470,99999,TURKU RAJAKARI,FI,NA,NA,60.383,22.1,5.5,2009-07-01,2018-06-16
027480,99999,VARKAUS,FI,NA,EFVR,62.171,27.869,87.2,2013-01-01,2016-05-11
027500,99999,HANKO TVARMINNE,FI,NA,NA,59.85,23.25,3,2009-07-01,2018-06-16
027510,99999,PORI TAHKOLUOTO HARBOUR,FI,NA,NA,61.633,21.383,4.6,2008-01-16,2018-06-16
027520,99999,KRISTIINANKAUPUNKI LIGHTHOUSE,FI,NA,NA,62.2,21.167,21.7,2008-01-15,2018-06-16
027530,99999,KANKAANPAA NIINISALO AIRFIELD,FI,NA,NA,61.833,22.467,122,2008-01-15,2018-06-16
027540,99999,HAMEENLINNA KATINEN,FI,NA,NA,61,24.5,85,2008-01-15,2018-06-16
027550,99999,YLIVIESKA AIRFIELD,FI,NA,NA,64.05,24.717,76,2003-03-30,2018-06-16
027560,99999,SALO KARKKA,FI,NA,NA,60.367,23.117,2,2008-01-15,2018-06-16
027570,99999,RAASEPORI JUSSARO,FI,NA,NA,59.817,23.583,22.8,2008-01-16,2018-06-16
027580,99999,VIHTI MAASOJA,FI,NA,NA,60.417,24.4,44.2,2008-01-15,2018-06-16
027590,99999,PORVOO HARABACKA,FI,NA,NA,60.4,25.6,23.5,2008-01-16,2018-06-16
027600,99999,KUUSAMO RUKA TALVIJARVI,FI,NA,NA,66.167,29.133,306.5,2014-01-08,2018-06-16
027610,99999,RAUMA KYLMAPIHLAJA,FI,NA,NA,61.15,21.3,29,2008-01-15,2018-06-16
027620,99999,KOKEMAKI PEIPOHJA HYRKOLA,FI,NA,NA,61.267,22.25,39,2008-01-15,2010-05-28
027630,99999,TAMPERE HARMALA,FI,NA,NA,61.467,23.75,86,2008-01-15,2018-06-16
027640,99999,KITTILA LOMPOLONVUOMA,FI,NA,NA,68,24.217,270,2014-01-08,2018-06-16
027650,99999,LUHANKA JUDINSALO,FI,NA,NA,61.7,25.5,83.2,2008-01-15,2018-06-16
027660,99999,ILOMANTSI POTSONVAARA,FI,NA,NA,63.15,31.05,236.5,2012-06-18,2018-06-16
027670,99999,HAMEENLINNA LAMMI PAPPILA,FI,NA,NA,61.05,25.05,125,2008-01-15,2018-06-16
027680,99999,HEINOLA ASEMANTAUS,FI,NA,NA,61.2,26.05,92,2008-01-15,2018-06-16
027690,99999,KAUHAJOKI KUJA-KOKKO,FI,NA,NA,62.417,22.183,93,2008-01-16,2018-06-16
027700,99999,JUUPAJOKI HYYTIALA,FI,NA,NA,61.85,24.283,153,2008-01-15,2018-06-16
027710,99999,JOUTSA LEIVONMAKI SAVENAHO,FI,NA,NA,61.883,26.1,146,2008-01-15,2018-06-16
027720,99999,RANTASALMI RUKKASLUOTO,FI,NA,NA,62.067,28.567,80,2008-01-15,2018-06-16
027730,99999,TURKU ARTUKAINEN,FI,NA,NA,60.45,22.183,9.1,2008-01-15,2018-06-16
027770,99999,SALO KIIKALA AIRFIELD,FI,NA,NA,60.467,23.65,117,2004-05-10,2018-06-16
027780,99999,SAVONLINNA PUNKAHARJU,FI,NA,NA,61.8,29.317,79.5,2008-01-15,2018-06-16
027800,99999,KORSNAS BREDSKARET,FI,NA,NA,62.933,21.183,2.8,2008-01-15,2018-06-16
027810,99999,STROMMINGSBADN,FI,NA,NA,62.983,20.733,3.7,2008-01-15,2018-06-16
027830,99999,LAMMI ISO-EVO,FI,NA,NA,61.183,25.033,129,2008-01-16,2009-02-01
027870,99999,ALAJARVI MOKSY,FI,NA,NA,63.083,24.267,171.4,2008-01-15,2018-06-16
027880,99999,KUOPIO MAANINKA,FI,NA,NA,63.15,27.317,91.3,2008-01-15,2018-06-16
027890,99999,RAUTAVAARA YLA-LUOSTA,FI,NA,NA,63.383,28.667,165.5,2008-01-16,2018-06-16
027900,99999,KUMLINGE KK,FI,NA,NA,60.25,20.75,22.5,2003-03-30,2018-06-16
027910,99999,JUUKA NIEMELA,FI,NA,NA,63.233,29.233,115,2008-01-15,2018-06-16
027930,99999,LIPERI TUISKAVANLUOTO,FI,NA,NA,62.55,29.667,79.5,2008-01-15,2018-06-16
027940,99999,KIRKKONUMMI MAKILUOTO,FI,NA,NA,59.917,24.35,2,2008-01-15,2018-06-16
027950,99999,HELSINKI HARMAJA,FI,NA,NA,60.1,24.983,6.4,2008-01-16,2018-06-16
027960,99999,LIEKSA LAMPELA,FI,NA,NA,63.317,30.05,98,2008-01-15,2018-06-16
027970,99999,HAAPAVEST MUSTIKKAMAKI,FI,NA,NA,64.15,25.417,112,2008-01-15,2018-06-16
027980,99999,VALTIMO KK,FI,NA,NA,63.667,28.833,115,2008-01-15,2018-06-16
027990,99999,KUHMO KALLIOJOKI,FI,NA,NA,64.3,30.167,198.4,2008-01-15,2018-06-16
028000,99999,RAAHE NAHKIAINEN,FI,NA,NA,64.617,23.9,23.8,2008-01-16,2018-06-16
028010,99999,ENONTEKIO KILPISJARVI,FI,NA,NA,69.05,20.783,482.7,1979-06-01,2018-06-16
028030,99999,SIIKAJOKI REVONLAHTI,FI,NA,NA,64.683,25.083,49.5,2008-01-15,2018-06-16
028040,99999,TAIVALKOSKI KK URHEILUTIE,FI,NA,NA,65.583,28.217,197,2008-01-15,2018-06-16
028050,99999,UTSJOKI KEVO,FI,NA,NA,69.75,27,106.3,1973-01-01,2018-06-16
028060,99999,KAAMANEN,FI,NA,NA,69.1,27.217,149,1908-01-01,1915-12-31
028070,99999,IVALO,FI,NA,EFIV,68.607,27.405,146.6,1952-01-01,2018-06-16
028075,99999,ENONTEKIO,FI,NA,EFET,68.363,23.424,306.3,1998-04-19,2018-06-16
028080,99999,INARI SEVETTIJARVI,FI,NA,NA,69.583,28.85,132,2008-01-16,2011-04-29
028110,99999,KUUSAMO KIUTAKONGAS,FI,NA,NA,66.367,29.317,165,2008-01-15,2018-06-16
028120,99999,YLITORNIO MELTOSJARVI,FI,NA,NA,66.533,24.65,93,2008-01-15,2018-06-16
028130,99999,ROVANIEMI APUKKA,FI,NA,NA,66.583,26.017,107.4,2008-01-15,2018-06-16
028140,99999,KEMIJARVI AIRFIELD,FI,NA,NA,66.717,27.167,208,2008-01-16,2018-06-16
028150,99999,SAVUKOSKI KK,FI,NA,NA,67.283,28.183,180,2008-01-15,2018-06-16
028160,99999,SODANKYLA VUOTSO,FI,NA,NA,68.083,27.183,248.8,2008-01-16,2018-06-16
028170,99999,SAARISELKA KAUNISPAA,FI,NA,NA,68.433,27.45,438,2008-01-15,2018-06-16
028180,99999,INARI RAJAJOOSEPPI,FI,NA,NA,68.483,28.3,254.9,2008-01-15,2018-06-16
028190,99999,SALLA VARRIOTUNTURI,FI,NA,NA,67.75,29.617,360,2008-01-15,2018-06-16
028200,99999,MUONIO LAUKUKERO,FI,NA,NA,68.067,24.033,762,2008-01-15,2018-06-16
028210,99999,MUONIO SAMMALTUNTURI,FI,NA,NA,67.967,24.117,565.5,2008-01-15,2018-06-16
028230,99999,MUONIO ALAMUONIO,FI,NA,NA,67.967,23.683,252.6,1973-01-01,2018-06-16
028234,99999,KITTILA,FI,NA,NA,67.7,24.833,201,1992-06-15,2012-12-31
028240,99999,KITTILA KENTTAROVA,FI,NA,NA,67.983,24.25,349.5,2008-01-16,2018-06-16
028250,99999,UTSJOKI NUORGAM,FI,NA,NA,70.083,27.9,22,2008-01-15,2018-06-16
028270,99999,INARI VAYLA,FI,NA,NA,69.067,27.5,123.5,2008-01-15,2018-06-16
028280,99999,KAARINA YLTOINEN,FI,NA,NA,60.383,22.55,5.2,2008-01-15,2018-06-16
028290,99999,HYVINKAA HYVINKAANKYLA,FI,NA,NA,60.6,24.8,87.5,2008-01-15,2018-06-16
028300,99999,KOUVOLA ANJALA,FI,NA,NA,60.7,26.817,33,2008-01-15,2018-06-16
028310,99999,VIROLAHTI KOIVUNIEMI,FI,NA,NA,60.533,27.667,5,2008-01-15,2018-06-16
028320,99999,TOHMAJARVI KEMIE,FI,NA,NA,62.233,30.35,90,2008-01-15,2018-06-16
028330,99999,SEINAJOKI PELMAA,FI,NA,NA,62.933,22.483,31.7,2008-01-15,2018-06-16
028340,99999,VIEREMA KAARAKKALA,FI,NA,NA,63.833,27.217,207.6,2008-01-16,2018-06-16
028350,99999,INARI NELLIM,FI,NA,NA,68.85,28.3,123,2008-01-15,2018-06-16
028360,99999,SODANKYLA,FI,NA,EFSO,67.395,26.619,183.5,1917-01-01,2018-06-16
028440,99999,PELLO CENTRE,FI,NA,EFPE,66.767,23.967,85.9,1973-01-01,2018-06-16
028450,99999,ROVANIEMI,FI,NA,EFRO,66.565,25.83,196.6,1973-01-01,2018-06-16
028470,99999,ROVANIEMI RAUTATIEASEMA,FI,NA,NA,66.5,25.717,82.3,2008-01-15,2018-06-16
028480,99999,SALLA,FI,NA,NA,66.817,28.667,223,1973-01-01,1999-07-30
028490,99999,SALLA KK MYLLYTIE,FI,NA,NA,66.833,28.667,221.7,2001-06-01,2018-06-16
028500,99999,VARKAUS KOLSUANNIEMI,FI,NA,NA,62.317,27.9,83,2013-08-05,2018-06-16
028510,99999,OULU OULUNSALO PELLONPAA,FI,NA,NA,64.933,25.367,12,2012-01-01,2018-06-16
028520,99999,KOKKOLA HOLLIHAKA,FI,NA,NA,63.85,23.117,8.1,2013-08-05,2018-05-15
028570,99999,INARI ANGELI LINTUPUOLISELKA,FI,NA,NA,68.9,25.733,285,2013-08-05,2018-06-16
028580,99999,INARI KIRAKKAJARVI,FI,NA,NA,69.583,28.9,106,2013-08-05,2018-06-16
028590,99999,PUOLANKA PALJAKKA,FI,NA,NA,64.667,28.05,341,2013-08-05,2018-06-16
028600,99999,KITTILA KK,FI,NA,NA,67.65,24.9,181,2013-08-05,2018-06-16
028620,99999,KEMI AJOS,FI,NA,NA,65.667,24.517,3.1,2004-08-31,2018-06-16
028630,99999,KEMI I LIGHTHOUSE,FI,NA,NA,65.383,24.1,19,2004-02-13,2018-06-16
028640,99999,KEMI TORNIO,FI,NA,EFKE,65.782,24.599,18.6,1952-01-01,2018-06-16
028650,99999,KUIVANIEMI,FI,NA,NA,65.517,25.267,5,1973-01-01,1979-07-29
028660,99999,PUDASJARVI AIRFIELD,FI,NA,NA,65.417,26.967,120,2001-06-01,2018-06-16
028670,99999,PUDASJARVI,FI,NA,NA,65.367,27.017,117,1973-01-01,2005-08-07
028680,99999,KUUSAMO RUKATUNTURI,FI,NA,NA,66.167,29.15,362.8,2008-01-15,2018-06-16
028690,99999,KUUSAMO,FI,NA,EFKS,65.988,29.239,264,1909-01-01,2018-06-16
028720,99999,RAAHE LAPALUOTO HARBOUR,FI,NA,NA,64.667,24.4,2,2008-01-16,2018-06-16
028730,99999,HAILUOTO MARJANIEMI,FI,NA,NA,65.033,24.567,7.3,2004-08-03,2018-06-16
028740,99999,HAILUOTO ISLAND,FI,NA,EFHL,65.033,24.8,6,1973-01-01,2018-06-16
028744,99999,YLIVIESKA,FI,NA,EFYL,64.061,24.716,76.8,1992-06-15,1995-06-08
028750,99999,OULU,FI,NA,EFOU,64.93,25.355,14.3,1906-01-01,2018-06-16
028760,99999,OULU VIHREASAARI HARBOUR,FI,NA,NA,65,25.4,3.8,2008-01-15,2018-06-16
028790,99999,SUOMUSSALMI,FI,NA,EFSU,64.9,29.017,224,1973-01-01,2001-03-09
028800,99999,TORNIO TORPPI,FI,NA,NA,65.85,24.167,9,2013-08-05,2018-06-16
028810,99999,RANUA AIRFIELD,FI,NA,NA,65.983,26.367,161,2013-08-05,2018-06-16
028820,99999,KITTILA MATOROVA,FI,NA,NA,68,24.233,340,2013-08-05,2018-06-16
028830,99999,KAJAANI PETAISENNISKA,FI,NA,NA,64.217,27.75,161.5,2013-08-05,2018-06-16
028880,99999,INARI SEITALAASSA,FI,NA,NA,69.05,27.75,121.5,2013-08-05,2018-06-16
028890,99999,SUOMUSSALMI PESIO,FI,NA,NA,64.933,28.75,225.2,2001-09-19,2018-06-16
028900,99999,UTSJOKI KEVO KEVOJARVI,FI,NA,NA,69.75,27.017,76,2013-08-05,2018-06-16
028970,99999,KAJAANI,FI,NA,EFKI,64.285,27.692,147.2,1916-01-01,2018-06-16
029010,99999,MASSKAR,FI,NA,NA,63.733,22.583,13,1973-01-01,2005-08-22
029020,99999,ULKOKALLA,FI,NA,NA,64.333,23.45,4,1973-01-01,1977-01-26
029030,99999,KRUUNUPYY,FI,NA,EFKK,63.721,23.143,25.3,1960-11-01,2018-06-16
029050,99999,NIVALA,FI,NA,NA,63.917,24.967,81,1973-01-01,2004-03-29
029060,99999,KEMIONSAARI KEMIO,FI,NA,NA,60.167,22.75,12,2013-08-05,2018-06-16
029070,99999,KALAJOKI ULKOKALLA,FI,NA,NA,64.333,23.45,5,1901-01-01,2018-06-16
029100,99999,MUSTASAARI VALASSAARET,FI,NA,NA,63.433,21.067,11,1973-01-01,2018-06-16
029110,99999,VAASA,FI,NA,EFVA,63.051,21.762,5.8,1917-01-01,2018-06-16
029120,99999,VAASA,FI,NA,NA,63.1,21.583,14,1997-12-01,2006-01-19
029130,99999,KAUHAVA,FI,NA,EFKA,63.127,23.051,46,1973-01-01,2018-06-16
029135,99999,KRUUNUPYY,FI,NA,NA,63.717,23.133,26,1998-03-16,2012-12-31
029140,99999,KAUHAVA KK UUNIMAANTIE,FI,NA,NA,63.117,23.05,40,2013-08-05,2015-01-09
029150,99999,VIITASAARI,FI,NA,EFVI,63.083,25.867,132,1973-01-01,2018-06-16
029170,99999,KUOPIO,FI,NA,EFKU,63.007,27.798,98.5,1906-01-01,2018-06-16
029190,99999,LAPPEENRANTA HIEKKAPAKKA,FI,NA,NA,61.2,28.467,77,1973-01-01,2018-06-16
029200,99999,PIETARSAARI KALLAN,FI,NA,NA,63.75,22.517,19.2,2004-08-03,2018-06-16
029210,99999,MOIKIPAA,FI,NA,NA,62.883,21.1,13,1974-03-01,2005-03-31
029240,99999,AHTARI MYLLYMAKI,FI,NA,EFHT,62.533,24.217,159.7,1973-01-01,2018-06-16
029244,99999,ILMAJOKI,FI,NA,EFIL,62.7,22.833,92,1992-05-20,1992-06-15
029245,99999,SEINAJOKI,FI,NA,EFSI,62.692,22.832,91.7,1999-01-14,2018-06-16
029260,99999,PORI RAILWAY STATION,FI,NA,NA,61.483,21.783,10.1,2012-01-01,2018-06-16
029270,99999,MULTIA KARHILA,FI,NA,NA,62.517,24.8,227,2013-08-05,2018-06-16
029280,99999,JOENSUU LINNUNLAHTI,FI,NA,NA,62.6,29.717,81,2013-08-05,2018-06-16
029290,99999,JOENSUU,FI,NA,EFJO,62.663,29.608,121.3,1952-01-01,2018-06-16
029310,99999,KASKINEN SALGRUND,FI,NA,NA,62.333,21.183,5,2013-08-05,2018-06-16
029340,99999,HELSINKI RAILWAY STATION SQ,FI,NA,NA,60.167,24.95,3,2012-06-18,2015-09-24
029350,99999,JYVASKYLA,FI,NA,EFJY,62.399,25.678,139.9,1917-01-01,2018-06-16
029370,99999,KOKEMAKI TULKKILA,FI,NA,NA,61.25,22.35,39,2012-06-18,2018-06-16
029390,99999,ILOMANTSI MEKRIJARVI,FI,NA,NA,62.767,30.983,156.5,2003-03-30,2018-06-16
029420,99999,KANKAANPAA NIINISALO PUOLVOIM,FI,NA,NA,61.833,22.467,124.8,1952-01-01,2018-06-16
029430,99999,TAMPERE SIILINKARI,FI,NA,NA,61.517,23.75,98,1973-01-01,2018-06-16
029440,99999,TAMPERE PIRKKALA,FI,NA,EFTP,61.414,23.604,118.9,1906-01-01,2018-06-16
029450,99999,HALLI,FI,NA,EFHA,61.856,24.787,146,1973-01-01,2018-06-16
029460,99999,JAMSA HALLI LENTOASEMANTIE,FI,NA,NA,61.867,24.817,144,2012-06-18,2018-06-16
029470,99999,MIKKELI,FI,NA,EFMI,61.687,27.202,100.3,1973-01-01,2018-06-16
029474,99999,VARKAUS,FI,NA,NA,62.167,27.867,89,1992-06-15,2012-12-31
029480,99999,SAVONLINNA,FI,NA,EFSA,61.943,28.945,94.8,1984-08-13,2018-06-16
029490,99999,SOMERO SALKOLA,FI,NA,NA,60.65,23.8,143,1973-01-01,2018-06-16
029500,99999,PARAINEN FAGERHOLM,FI,NA,NA,60.117,21.7,4.5,1901-01-01,2018-06-16
029520,99999,PORI,FI,NA,EFPO,61.462,21.8,13.4,1952-01-01,2018-06-16
029530,99999,HAMEENLINNA,FI,NA,NA,60.983,24.45,92,1973-01-01,1977-01-19
029550,99999,KUOPIO SAVILAHTI,FI,NA,NA,62.9,27.633,88.3,2012-06-18,2018-06-16
029560,99999,KOUVOLA UTTI LENTOPORTINTIE,FI,NA,NA,60.883,26.933,99,2013-08-05,2018-06-16
029570,99999,VAASA KLEMETTILA,FI,NA,NA,63.1,21.639,9,2012-01-01,2018-06-16
029580,99999,LAPPEENRANTA,FI,NA,EFLP,61.045,28.144,106.4,1973-01-01,2018-06-16
029590,99999,LAPPEENRANTA LEPOLA,FI,NA,NA,61.05,28.217,104.4,2012-06-18,2018-06-16
029600,99999,RAIJALA,FI,NA,NA,61.183,22.617,51,1901-01-01,1905-12-31
029610,99999,KUUSKAJASKARI,FI,NA,NA,61.133,21.367,10,1973-01-01,2005-08-01
029630,99999,JOKIOINEN,FI,NA,NA,60.817,23.5,103,1957-04-02,2018-06-16
029640,99999,KUSTAVI ISOKARI,FI,NA,NA,60.717,21.033,3.9,2004-08-03,2018-06-16
029650,99999,LAHTI LAUNE,FI,NA,NA,60.967,25.633,78.7,1973-01-01,2018-06-16
029660,99999,UTTI,FI,NA,EFUT,60.896,26.938,103.3,1973-01-01,2018-06-16
029670,99999,KOTKA HAAPASAARI,FI,NA,NA,60.283,27.183,5.5,2004-08-03,2018-06-16
029680,99999,KOTKA KIRKONMAA,FI,NA,NA,60.383,27.05,27.9,2012-06-18,2013-08-30
029700,99999,MARIEHAMN,FI,NA,EFMA,60.122,19.898,5.2,1917-01-01,2018-06-16
029710,99999,JOMALA,FI,NA,NA,60.15,19.867,10,1997-12-01,2007-01-02
029720,99999,TURKU,FI,NA,EFTU,60.514,22.263,49.1,1901-01-01,2018-06-16
029730,99999,SUOMUSJARVI,FI,NA,NA,60.4,23.767,86,1973-01-01,2003-10-17
029740,99999,HELSINKI VANTAA,FI,NA,EFHK,60.317,24.963,54.6,1952-01-01,2018-06-16
029750,99999,HELSINKI MALMI,FI,NA,EFHF,60.255,25.043,17.4,1917-01-01,2017-03-06
029760,99999,KOTKA RANKKI,FI,NA,NA,60.383,26.967,13.1,1952-01-01,2018-06-16
029780,99999,HELSINKI KAISANIEMI,FI,NA,NA,60.183,24.95,4,2008-01-15,2018-06-16
029790,99999,KOKAR BOGSKAR,FI,NA,NA,59.5,20.35,16,2004-08-03,2018-06-16
029800,99999,LEMLAND NYHAMN,FI,NA,NA,59.967,19.95,10,1973-01-01,2018-06-16
029810,99999,PARAINEN UTO,FI,NA,NA,59.783,21.367,6.8,1901-01-01,2018-06-16
029820,99999,HANKO RUSSARO,FI,NA,NA,59.767,22.95,6.5,1906-01-01,2018-06-16
029830,99999,NURMIJARVI GEOPHSICAL OBSERVA,FI,NA,NA,60.517,24.65,113,2012-06-18,2018-06-16
029840,99999,INKOO BAGASKAR,FI,NA,NA,59.933,24.017,12,1973-01-01,2018-06-16
029851,99999,ESPOO TAPIOLA,FI,NA,NA,60.183,24.783,7.5,2015-02-17,2018-06-16
029860,99999,KATAJALUOTO,FI,NA,NA,60.1,24.917,7,1973-01-01,1985-05-20
029870,99999,PORVOO KALLBADAGRUND,FI,NA,NA,59.983,25.6,23.3,1982-10-01,2018-06-16
029880,99999,ISOSAARI,FI,NA,NA,60.1,25.067,7,1984-10-01,2008-10-01
029890,99999,HELSINKI LIGHTHOUSE,FI,NA,NA,59.95,24.933,20.2,2012-06-18,2018-05-10
029900,99999,KUMLINGE ISLAND,FI,NA,NA,60.3,20.75,5,1984-10-01,2003-02-22
029910,99999,PORVOO EMASALO,FI,NA,NA,60.2,25.633,27.1,2004-08-03,2018-06-16
029920,99999,LOVIISA ORRENGRUND,FI,NA,NA,60.283,26.45,3.5,2004-08-03,2018-06-16
029930,99999,HAMMARLAND MARKET,FI,NA,NA,60.3,19.133,15.1,2004-02-13,2018-06-16
029960,99999,RYMATTYLA RAULA,FI,NA,NA,60.4,21.95,7,2008-01-16,2012-04-13
029980,99999,HELSINKI KUMPULA,FI,NA,NA,60.2,24.967,24,2013-08-05,2018-06-16
030010,99999,MUCKLE FLUGGA,UK,NA,NA,60.85,-0.883,53,1980-04-21,2006-01-15
030020,99999,BALTASOUND NO.2,UK,NA,EGPW,60.75,-0.85,15,1973-01-01,2018-06-16
030030,99999,SUMBURGH,UK,NA,EGPB,59.879,-1.296,6.1,1977-01-19,2018-06-16
030040,99999,COLLAFIRTH HILL,UK,NA,NA,60.533,-1.383,228,1979-02-08,2005-07-31
030050,99999,LERWICK,UK,NA,NA,60.133,-1.183,84,1929-10-01,2018-06-16
030060,99999,SELLA NESS,UK,NA,NA,60.45,-1.267,7,1981-05-01,2016-02-11
030064,99999,SCATSTA,UK,NA,EGPM,60.433,-1.296,24.7,1981-10-15,2018-06-16
030065,99999,UNST ISLAND,UK,NA,NA,60.733,-0.817,285,1981-11-24,2002-11-30
030070,99999,MUCKLE HOLM,UK,NA,NA,60.583,-1.267,20,1981-11-24,2005-05-05
030080,99999,FAIR ISLE,UK,NA,NA,59.533,-1.633,57,1973-01-03,2018-06-16
030090,99999,NORTH RONALDSAY ISL,UK,NA,NA,59.367,-2.417,11,1978-10-03,2006-04-10
030100,99999,SULE SKERRY,UK,NA,NA,59.083,-4.4,12,1973-01-01,2018-06-16
030110,99999,NORTH RONA ISLAND,UK,NA,NA,59.117,-5.817,103,1990-09-01,2009-03-20
030130,99999,FOULA,UK,NA,NA,60.15,-2.067,22,1984-06-14,2005-01-29
030140,99999,FOULA NO2,UK,NA,NA,60.117,-2.067,13,1984-08-01,2016-04-26
030170,99999,KIRKWALL,UK,NA,EGPA,58.958,-2.905,15.5,1973-01-01,2018-06-16
030180,99999,WOODVALE,UK,NA,EGOW,53.582,-3.056,11.3,2005-06-20,2018-06-14
030200,99999,SAINT KILDA ISLAND,UK,NA,NA,57.817,-8.567,8,1975-04-02,1990-03-21
030210,99999,LOCHBOISDALE,UK,NA,NA,57.15,-7.317,6,1973-01-03,2005-09-20
030220,99999,BENBECULA,UK,NA,EGPL,57.481,-7.363,5.8,1973-01-01,2018-06-16
030230,99999,SOUTH UIST RANGE,UK,NA,NA,57.333,-7.367,4,1992-03-01,2018-06-16
030240,99999,HYSKEIR (LGT-H),UK,NA,NA,56.967,-6.683,10,1986-05-01,2005-10-02
030250,99999,BUTT OF LEWIS (LH),UK,NA,NA,58.517,-6.267,23,1983-08-04,2005-10-13
030260,99999,STORNOWAY,UK,NA,EGPO,58.216,-6.331,7.9,1929-10-01,2018-06-16
030270,99999,WATERSTEIN,UK,NA,NA,57.433,-6.767,83,1977-10-05,2006-02-03
030280,99999,NEIST POINT (LGT-H),UK,NA,NA,57.417,-6.783,21,1980-10-01,1990-02-21
030290,99999,ARDNAMURCHAN(LGT-H),UK,NA,NA,56.733,-6.217,12,1973-01-01,2002-10-27
030300,99999,SAASAIG,UK,NA,NA,57.1,-5.833,9,1973-01-04,1976-10-03
030310,99999,LOCH GLASCARNOCH,UK,NA,NA,57.717,-4.883,264,1992-10-22,2018-06-16
030320,99999,RUBH RE,UK,NA,NA,57.867,-5.817,16,1973-01-01,1978-03-27
030330,99999,DIABAIG,UK,NA,NA,57.583,-5.7,60,1980-10-01,2002-10-25
030340,99999,AULTBEA NO2,UK,NA,NA,57.867,-5.633,10,1986-10-01,2018-06-16
030350,99999,BARRA ISLAND,UK,NA,EGPR,57.033,-7.45,3,1987-06-24,2007-07-10
030360,99999,BROADFORD,UK,NA,NA,57.25,-5.867,8,1988-03-01,1991-05-13
030370,99999,SKYE/LUSA,UK,NA,NA,57.25,-5.8,18,1998-03-01,2017-05-02
030380,99999,FORT WILLIAM,UK,NA,NA,56.833,-5.1,20,1973-01-01,2002-06-10
030390,99999,BEALACH NA BA NO2,UK,NA,NA,57.417,-5.683,773,1989-03-01,2018-06-16
030400,99999,KILMORY,UK,NA,NA,56.767,-6.05,45,1989-08-01,2004-03-23
030410,99999,AONACH MOR,UK,NA,NA,56.817,-4.967,1130,1992-03-02,2017-09-28
030430,99999,LOCHCARRON,UK,NA,NA,57.4,-5.483,32,2003-03-30,2003-11-07
030440,99999,ALTNAHARRA NO2,UK,NA,NA,58.283,-4.433,80,1993-03-02,2018-06-16
030460,99999,LOCHLUICHART,UK,NA,NA,57.617,-4.817,88,2001-09-15,2004-10-31
030470,99999,TULLOCH BRIDGE,UK,NA,NA,56.867,-4.7,249,1983-08-05,2018-06-16
030490,99999,CAPE WRATH (LGT-H),UK,NA,NA,58.633,-5,112,1973-01-01,2001-12-19
030500,99999,FORT AUGUSTUS,UK,NA,NA,57.133,-4.717,41,1973-01-01,2005-07-09
030520,99999,SHIN-IN-SUTHERLAND,UK,NA,NA,57.95,-4.417,7,1973-01-01,1980-01-10
030521,99999,SHIN,UK,NA,NA,57.95,-4.417,7,2007-03-07,2007-03-07
030530,99999,NAIRN,UK,NA,NA,57.6,-3.867,52,1929-10-01,1930-12-31
030540,99999,STRATHY PT. (LGT-H),UK,NA,NA,58.6,-4.017,32,1978-02-11,2001-11-04
030550,99999,RACKWICK,UK,NA,NA,58.867,-3.383,18,1984-06-09,2008-04-29
030560,99999,DALWHINNIE,UK,NA,NA,56.933,-4.233,358,1931-03-01,1939-09-30
030570,99999,FOYERS,UK,NA,NA,57.267,-4.483,21,1982-04-03,2003-12-23
030580,99999,INVERGORDON HARBOUR,UK,NA,NA,57.683,-4.167,3,1984-06-14,2002-11-29
030590,99999,INVERNESS,UK,NA,EGPE,57.543,-4.048,9.4,1973-01-02,2018-06-16
030600,99999,TUMMEL BRIDGE,UK,NA,NA,56.7,-4.017,145,1973-01-01,2002-01-17
030610,99999,TARBAT NESS (CAPE),UK,NA,NA,57.867,-3.767,18,1973-01-01,2005-05-15
030620,99999,TAIN RANGE (SAWS),UK,NA,EGQA,57.817,-3.967,4,1989-10-19,2018-06-16
030630,99999,AVIEMORE,UK,NA,NA,57.2,-3.833,228,1982-12-01,2018-06-16
030640,99999,GLENMORE LODGE,UK,NA,NA,57.167,-3.7,341,1973-01-01,1980-05-30
030650,99999,CAIRNGORM SUMMIT,UK,NA,NA,57.117,-3.633,1245,1985-01-06,2018-06-16
030660,99999,KINLOSS,UK,NA,EGQK,57.649,-3.561,6.7,1973-01-01,2018-06-16
030670,99999,FEALAR LODGE,UK,NA,NA,56.9,-3.633,560,1986-11-01,2005-10-21
030680,99999,LOSSIEMOUTH,UK,NA,EGQS,57.705,-3.339,12.8,1973-01-03,2018-06-16
030700,99999,GLENLIVET,UK,NA,NA,57.35,-3.35,213,1973-01-01,2008-08-01
030710,99999,GRANTOWN-ON-SPEY,UK,NA,NA,57.333,-3.633,335,1981-01-07,2005-10-25
030720,99999,CAIRNWELL,UK,NA,NA,56.883,-3.417,933,1997-12-01,2018-06-16
030731,99999,CRATHIE DISTILLERY,UK,NA,NA,57.033,-3.217,317,2007-03-06,2007-03-07
030740,99999,SCRABSTER HARBOUR,UK,NA,NA,58.617,-3.55,10,1995-10-01,2004-10-15
030750,99999,WICK,UK,NA,EGPC,58.459,-3.093,38.4,1929-10-01,2018-06-16
030760,99999,TEMP FOR 03075,UK,NA,NA,58.45,-3.1,39,1993-03-13,1999-04-25
030770,99999,LYBSTER,UK,NA,NA,58.317,-3.283,85,1994-10-01,2005-11-12
030800,99999,ABOYNE NO2,UK,NA,NA,57.083,-2.833,140,1989-04-12,2018-06-16
030820,99999,SPITTAL OF GLENSHEE,UK,NA,NA,56.767,-3.383,308,2004-06-11,2006-04-04
030840,99999,KIRKMICHAEL,UK,NA,NA,56.717,-3.517,266,2004-02-27,2004-02-27
030850,99999,INCHMARLO,UK,NA,NA,57.067,-2.533,80,1990-03-01,2007-03-01
030880,99999,INVERBERVIE NO.2,UK,NA,NA,56.85,-2.267,134,1987-12-02,2018-06-16
030890,99999,USAN,UK,NA,NA,56.683,-2.45,30,1973-03-08,1979-07-09
030900,99999,WINDY HEAD,UK,NA,NA,57.633,-2.233,231,1973-01-02,1989-01-07
030910,99999,DYCE,UK,NA,EGPD,57.202,-2.198,65.5,1926-06-02,2018-06-16
030920,99999,PETERHEAD HARBOUR,UK,NA,NA,57.5,-1.767,15,1978-11-01,2016-02-11
030930,99999,FRASERBURGH (LGT-H),UK,NA,NA,57.683,-2,19,1973-03-08,1990-07-18
030940,99999,ROSEHEARTY,UK,NA,NA,57.7,-2.117,7,1995-10-01,2012-02-27
030960,99999,BRIDGE OF CLAY,UK,NA,NA,56.65,-3.383,175,2001-09-16,2004-08-11
030970,99999,ENOCHDHU,UK,NA,NA,56.75,-6.883,4,2003-03-30,2005-05-28
031000,99999,TIREE,UK,NA,EGPU,56.499,-6.869,11.6,1929-10-01,2018-06-16
031020,99999,ORSAY (LGT-H),UK,NA,NA,55.667,-6.5,23,1984-06-14,2005-05-29
031050,99999,ISLAY: PORT ELLEN,UK,NA,NA,55.683,-6.25,17,2001-07-29,2018-06-16
031051,99999,ISLAY (PORT ELLEN),UK,NA,NA,55.683,-6.25,18,1973-04-01,1988-01-05
031053,99999,ISLAY (PORT ELLEN),UK,NA,EGPI,55.683,-6.25,18,1988-01-07,1988-01-12
031060,99999,RHUVAAL,UK,NA,NA,55.917,-6.133,20,1973-01-01,1982-06-23
031070,99999,DHU LOCH,UK,NA,NA,55.817,-5.1,83,1973-01-01,1985-01-25
031110,99999,MACHRIHANISH,UK,NA,EGQJ,55.433,-5.7,10,1973-01-01,2018-06-16
031140,99999,OBAN,UK,NA,EGEO,56.417,-5.467,4,1978-09-02,2018-06-12
031160,99999,DALMALLY  STRONMILCHAN,UK,NA,NA,56.4,-5,40,2001-09-15,2009-03-31
031180,99999,CORSEWALL PT. (LH),UK,NA,NA,55,-5.15,15,1973-01-01,2005-07-31
031190,99999,PORTPATRICK,UK,NA,NA,54.85,-5.133,30,1973-03-08,1975-12-14
031200,99999,LOCHRANZA NO3,UK,NA,NA,55.7,-5.3,46,1988-08-01,2008-10-20
031210,99999,KILDONAN,UK,NA,NA,55.433,-5.1,18,1973-03-02,2003-07-18
031220,99999,PLADDA (LGT-H),UK,NA,NA,55.417,-5.117,12,1986-10-02,2004-05-31
031290,99999,ARDROSSAN,UK,NA,NA,55.65,-4.817,9,1973-01-01,2001-06-29
031300,99999,WEST FREUGH,UK,NA,NA,54.85,-4.95,17,1973-01-03,2007-03-07
031310,99999,MULL OF GALLOWAY LH,UK,NA,NA,54.633,-4.85,78,1973-01-01,2005-08-28
031320,99999,WEST FREUGH (AUT),UK,NA,EGOY,54.85,-4.95,12,1983-08-04,2018-06-16
031330,99999,SLOY,UK,NA,NA,56.25,-4.717,6,1973-01-01,2004-08-14
031340,99999,GLASGOW BISHOPTON,UK,NA,NA,55.9,-4.533,59,2003-03-30,2018-06-16
031350,99999,PRESTWICK,UK,NA,EGPK,55.509,-4.587,19.8,1944-01-01,2018-06-16
031360,99999,PRESTWICK RNAS,UK,NA,NA,55.517,-4.583,27,1993-04-01,2018-06-16
031370,99999,WHITHORN,UK,NA,NA,54.7,-4.417,40,1980-09-10,1994-05-09
031380,99999,GREENOCK MRCC,UK,NA,NA,55.967,-4.8,5,1987-03-06,2007-07-19
031390,99999,SAUGHALL,UK,NA,NA,55.6,-4.217,223,1997-12-01,2008-07-31
031394,99999,CAMPBELTOWN,UK,NA,EGEC,55.437,-5.686,12.8,1999-01-18,2018-06-16
031400,99999,GLASGOW,UK,NA,EGPF,55.872,-4.433,7.9,1929-10-01,2018-06-16
031401,99999,MAGNUS OIL PLATFORM,UK,NA,EGRE,61.617,1.3,470,2012-03-01,2018-06-16
031402,99999,BRUCE OIL PLATFORM,UK,NA,EGRK,59.733,1.667,470,2012-03-01,2018-06-16
031403,99999,HARDING OIL PLATFORM,UK,NA,EGRL,59.267,1.5,470,2012-03-01,2018-06-16
031404,99999,MILLER OIL PLATFORM,UK,NA,EGRM,58.717,1.4,470,2012-03-01,2017-08-12
031405,99999,ANDREW OIL PLATFORM,UK,NA,EGRO,58.033,1.4,470,2012-03-01,2018-06-16
031406,99999,MUNGO OIL PLATFORM,UK,NA,EGRP,57.367,1.983,470,2012-03-01,2018-06-16
031407,99999,MARNOCK OIL PLATFORM,UK,NA,EGRS,57.283,1.65,470,2012-03-01,2018-06-16
031408,99999,RAVENSPURN N OIL PLATFORM,UK,NA,EGRV,54.017,1.1,470,2012-03-01,2018-06-16
031409,99999,WEST SOLE OIL PLATFORM,UK,NA,EGRW,53.7,1.133,470,2012-03-01,2018-06-16
031411,99999,SCHIEHALLION FPSO OIL PLATFOR,UK,NA,EGRI,60.35,-4.05,470,2013-03-12,2013-03-26
031412,99999,CLAIR OIL PLATFORM,UK,NA,EGRF,60.683,-2.533,470,2013-03-12,2018-06-16
031413,99999,CLEETON OIL PLATFORM,UK,NA,EGRT,54.033,0.717,470,2013-03-12,2018-06-14
031430,99999,KILLIN,UK,NA,NA,56.483,-4.35,114,1973-01-01,1989-09-08
031440,99999,STRATHALLEN AIRFIELD,UK,NA,NA,56.317,-3.733,35,1989-05-02,2018-06-16
031450,99999,GLASGOW WEA. CEN.,UK,NA,NA,55.867,-4.267,17,1973-01-01,1985-03-31
031470,99999,GLENLEE,UK,NA,NA,55.1,-4.183,55,1973-01-01,1990-10-31
031480,99999,GLEN OGLE,UK,NA,NA,56.417,-4.317,564,1996-11-01,2018-06-16
031490,99999,BECAME STN 031491,UK,NA,NA,56.067,-4.05,335,1973-01-01,1981-12-31
031500,99999,CRAWFORDJOHN,UK,NA,NA,55.5,-3.767,274,1973-01-01,1983-07-30
031520,99999,SALSBURGH,UK,NA,NA,55.867,-3.867,275,1973-01-01,2004-05-20
031530,99999,DUNDRENNAN,UK,NA,NA,54.8,-4,113,1983-08-04,2018-06-16
031540,99999,DUMFRIES/DRUNGANS,UK,NA,NA,55.05,-3.65,16,1973-01-01,2004-04-19
031550,99999,DRUMALBIN,UK,NA,NA,55.617,-3.733,245,1991-05-02,2018-06-16
031560,99999,PITREAVIE,UK,NA,EGRQ,56.05,-3.417,40,1982-03-18,1985-08-01
031570,99999,PERTH/SCONE,UK,NA,NA,56.433,-3.367,121,1981-03-30,1990-04-02
031571,99999,PERTH/SCONE,UK,NA,NA,56.433,-3.367,121,1973-01-03,1981-03-27
031573,99999,PERTH/SCONE,UK,NA,EGPT,56.45,-3.367,121,1990-04-24,1993-07-01
031580,99999,CHARTERHALL,UK,NA,NA,55.7,-2.383,111,1987-10-02,2018-06-16
031590,99999,INCHKEITH,UK,NA,NA,56.033,-3.133,58,1929-10-01,2016-09-06
031600,99999,EDINBURGH,UK,NA,EGPH,55.95,-3.373,41.1,1973-01-01,2018-06-16
031610,99999,EDDLESTON,UK,NA,NA,55.7,-3.217,195,1973-01-08,2006-03-16
031620,99999,ESKDALEMUIR,UK,NA,NA,55.317,-3.2,242,1929-10-01,2018-06-16
031634,99999,DUNDEE,UK,NA,EGPN,56.452,-3.026,5.2,1983-04-04,2018-06-16
031640,99999,BIGGAR,UK,NA,NA,55.6,-3.55,206,2001-09-16,2005-05-29
031650,99999,SPADEADAM,UK,NA,EGOM,55.05,-2.55,325,1992-09-11,2018-06-16
031660,99999,EDINBURGH GOGARBANK,UK,NA,NA,55.933,-3.35,57,2003-03-30,2018-06-16
031670,99999,BASS ROCK (LGT-H),UK,NA,NA,56.083,-2.633,38,1976-10-01,2001-07-26
031680,99999,GALASHIELS,UK,NA,NA,55.6,-2.9,146,1973-01-01,2005-05-23
031700,99999,SHANWELL,UK,NA,NA,56.433,-2.867,5,1981-09-29,2005-08-21
031710,99999,LEUCHARS,UK,NA,EGQL,56.373,-2.868,11.6,1929-10-01,2018-06-16
031740,99999,FIFE NESS,UK,NA,NA,56.3,-2.583,12,1978-05-01,2007-11-01
031760,99999,CARTERHOUSE,UK,NA,NA,55.367,-2.517,308,1989-10-01,2008-10-31
031770,99999,BELL ROCK (LGT-H),UK,NA,NA,56.433,-2.4,21,1973-01-01,1990-10-08
031850,99999,ST. ABB'S HEAD (LH),UK,NA,NA,55.917,-2.133,75,1937-07-01,1992-01-27
031900,99999,SEAHOUSES,UK,NA,NA,55.583,-1.65,11,1973-03-08,1979-06-29
032040,99999,ISLE OF MAN,IM,NA,EGNS,54.083,-4.624,16.8,1973-01-01,2018-06-16
032050,99999,CALF OF MAN (AUX),IM,NA,NA,54.05,-4.833,93,1988-05-04,2004-06-26
032070,99999,SNAEFELL-ISLE,UK,NA,NA,54.267,-4.467,615,1973-01-04,2005-10-11
032080,99999,POINT OF AYRE (LH),IM,NA,NA,54.417,-4.367,9,1935-06-30,2003-02-21
032090,99999,DRUMBURGH,UK,NA,NA,54.933,-3.15,7,1995-10-01,2005-04-09
032100,99999,ST BEES HEAD NO.2,UK,NA,NA,54.517,-3.6,123,1984-06-14,2018-06-16
032110,99999,ST. BEES HEAD (LH),UK,NA,NA,54.517,-3.633,94,1973-01-01,1987-07-31
032120,99999,KESWICK,UK,NA,NA,54.617,-3.167,81,1984-06-14,2018-06-16
032130,99999,ESKMEALS,UK,NA,NA,54.317,-3.4,9,1973-01-02,2001-04-02
032140,99999,WALNEY ISLAND,UK,NA,EGNL,54.131,-3.264,14.3,1983-08-04,2018-06-16
032145,99999,WARTON,UK,NA,EGNO,53.745,-2.883,16.8,2011-11-30,2018-06-15
032150,99999,ASPATRIA,UK,NA,NA,54.767,-3.317,62,1977-11-08,2007-03-07
032160,99999,BROMFIELD,UK,NA,NA,54.8,-3.283,20,1973-01-01,1978-03-23
032200,99999,CARLISLE,UK,NA,NA,54.933,-2.967,27,1988-06-01,2018-06-16
032210,99999,CAUSEWAY FOOT,UK,NA,NA,54.583,-3.083,160,1973-08-09,1977-11-01
032220,99999,CARLISLE,UK,NA,EGNC,54.938,-2.809,57.9,1973-01-01,2018-06-04
032230,99999,RYDAL,UK,NA,NA,54.45,-2.983,67,1975-04-26,1987-01-12
032240,99999,SPADEADAM NO2,UK,NA,NA,55.05,-2.55,286,1992-12-01,2018-06-16
032250,99999,SHAP,UK,NA,NA,54.5,-2.683,255,1978-11-01,2018-06-16
032260,99999,WARCOP RANGE,UK,NA,NA,54.567,-2.417,227,1983-08-08,2018-06-16
032270,99999,GREAT DUN FELL NO2,UK,NA,NA,54.683,-2.45,847,1994-10-01,2018-06-16
032280,99999,WHINS POND (AUX),UK,NA,NA,54.667,-2.7,125,1984-06-14,2004-01-28
032290,99999,GREAT DUN FELL,UK,NA,NA,54.7,-2.45,847,1973-01-01,2003-07-31
032300,99999,REDESDALE CAMP,UK,NA,NA,55.283,-2.283,212,1983-08-04,2018-06-16
032330,99999,RIBBLEHEAD,UK,NA,NA,54.217,-2.333,312,1975-12-18,1979-12-02
032350,99999,BOLTSHOPE PARK,UK,NA,NA,54.817,-2.083,434,1994-11-01,2007-03-31
032370,99999,FOREST,UK,NA,NA,54.65,-2.2,381,1973-01-01,1979-04-04
032380,99999,ALBEMARLE,UK,NA,NA,55.017,-1.867,146,2003-03-30,2018-06-16
032400,99999,BOULMER,UK,NA,EGQM,55.424,-1.603,21.3,1975-10-01,2018-06-16
032410,99999,LONG FRAMLINGTON,UK,NA,NA,55.3,-1.8,158,1989-12-01,2005-08-22
032420,99999,BURNHOPE,UK,NA,NA,54.817,-1.717,244,1973-01-01,2002-06-16
032431,99999,NEWCASTLE/WOOLSING.,UK,NA,NA,55.033,-1.683,81,1973-01-01,1988-01-05
032433,99999,NEWCASTLE,UK,NA,EGNT,55.038,-1.692,81.1,1988-01-05,2018-06-16
032450,99999,NEWCASTLE WX CENTRE,UK,NA,NA,54.967,-1.617,50,1973-01-01,1990-12-26
032460,99999,NEWCASTLE WEATHER CENTRE,UK,NA,NA,54.983,-1.6,52,1990-11-01,2005-10-04
032490,99999,SUNDERLAND UNIVERSITY,UK,NA,NA,54.983,-1.633,70,1989-03-01,2001-05-30
032570,99999,LEEMING,UK,NA,EGXE,54.292,-1.535,40.2,1973-01-01,2018-06-16
032610,99999,DISHFORTH,UK,NA,EGXD,54.137,-1.42,35.7,1992-05-01,2016-06-06
032620,99999,TYNEMOUTH,UK,NA,NA,55.017,-1.417,30,1926-01-01,2005-01-11
032635,99999,DURHAM TEES VALLEY AIRPORT,UK,NA,EGNV,54.509,-1.429,36.6,1973-01-01,2018-06-16
032643,99999,TOPCLIFFE,UK,NA,EGXZ,54.206,-1.382,28,1994-07-20,2018-06-16
032650,99999,TOPCLIFFE,UK,NA,NA,54.2,-1.383,28,1997-05-01,2018-06-16
032660,99999,LINTON ON OUSE,UK,NA,EGXU,54.049,-1.253,16.2,1973-01-01,2018-06-16
032690,99999,TEESMOUTH,UK,NA,NA,54.65,-1.133,12,1975-04-26,1984-01-07
032710,99999,TEESMOUTH (AUX),UK,NA,NA,54.62,-1.13,12,1992-04-01,2006-02-07
032750,99999,LOFTUS,UK,NA,NA,54.567,-0.867,159,1996-11-01,2018-06-16
032800,99999,CATTERICK,UK,NA,NA,54.367,-1.617,53,1931-11-13,1939-09-30
032810,99999,FYLINGDALES,UK,NA,NA,54.367,-0.667,262,1973-01-01,2018-06-16
032820,99999,WHITBY,UK,NA,NA,54.483,-0.6,60,1973-01-18,2005-03-04
032910,99999,FLAMBOROUGH HEAD,UK,NA,NA,54.117,-0.083,46,1973-03-08,1987-05-31
032920,99999,BRIDLINGTON MRSC,UK,NA,NA,54.1,-0.167,19,1987-04-30,2018-06-16
032930,99999,COWDEN,UK,NA,NA,53.85,-0.1,15,1997-12-01,2003-10-06
033010,99999,MONA,UK,NA,NA,53.267,-4.367,62,2009-11-19,2018-06-16
033011,99999,RAF BURTONWOOD,UK,NA,NA,53.417,-2.65,18,1943-03-31,1945-03-18
033020,99999,VALLEY,UK,NA,EGOV,53.248,-4.535,11.3,1926-06-06,2018-06-16
